id,nombre,lng,lat,altitud,corriente,subzona,zona,cenpoblado,municipio,ctg,cotacero,areaaferete,depart,alert,uroja,unaranja,uamarilla,ubajos,umaxhis,umbralsen,umbralobs,ultimonivelsen,ultimonivelobs
11027030,SIETE EL [11027030],-76.152056,5.862,2300.0,ATRATO,Alto Atrato,Atrato - Darién,EL CARMEN DE ATRATO,EL CARMEN DE ATRATO,Limnigrafica,0.0,204.109382577,CHOCO,R0,nan,nan,nan,0.91,5.0,nan,nan,nan,1.8
14017702,BARRANCAVIEJA AUTOM [14017702],-74.948611,10.148333,9.0,nan,Directos al Bajo Magdalena entre El Plato y Calamar (mi),Bajo Magdalena,CALAMAR,CALAMAR,Limnigrafica,0.0,nan,BOLIVAR,R0,nan,nan,nan,nan,nan,nan,nan,nan,nan
15017030,MINCA    [15017030],-74.119722,11.140278,650.0,GAIRA,Río  Piedras - Río Manzanares,Caribe - Guajira,DISTRITO TURISTICOCULTURAL E HISTORICO DE STA MARTA,SANTA MARTA,Limnigrafica,604.65,34.7614241069,MAGDALENA,R0,nan,nan,nan,0.02,3.5,nan,nan,nan,0.53
15067020,CERCADO EL-AUTOMAT   [15067020],-73.008253,10.907672,400.0,RANCHERIA,Río Ranchería,Caribe - Guajira,FONSECA,FONSECA,Limnigrafica,0.0,347.85853169,LA GUAJIRA,R0,3.5,3.0,2.5,0.1,5.0,nan,nan,0.63,nan
16017010,AGUAS CLARAS [16017010],-72.417222,8.233611,70.0,PAMPLONITA,Río Pamplonita,Catatumbo,DISTRITO ESPECIAL FRONTERIZO Y TURISTICO DE CUCUTA,CUCUTA,Limnigrafica,0.0,2214.09683941,NORTE DE SANTANDER,R0,nan,nan,nan,0.03,5.13,nan,nan,nan,nan
16027060,PTO LEON [16027060],-72.434722,8.350278,47.0,ZULIA,Río Zulia,Catatumbo,DISTRITO ESPECIAL FRONTERIZO Y TURISTICO DE CUCUTA,CUCUTA,Limnigrafica,0.0,5539.88373347,NORTE DE SANTANDER,R0,nan,nan,nan,0.74,5.84,nan,nan,nan,nan
16027120,SAN JAVIER-PTE ZUL [16027120],-72.650278,7.833889,270.0,ZULIA,Río Zulia,Catatumbo,SAN CAYETANO,SAN CAYETANO,Limnigrafica,0.0,1581.44112271,NORTE DE SANTANDER,R0,3.5,3.0,2.5,0.0,7.2,nan,nan,nan,nan
16027280,ASTILLEROS [16027280],-72.581389,8.105278,140.0,ZULIA,Río Zulia,Catatumbo,EL ZULIA,EL ZULIA,Limnimetrica,0.0,2645.02393994,NORTE DE SANTANDER,R0,nan,nan,nan,0.96,4.68,nan,nan,nan,nan
16027310,TERMOTASAJERO AUTOMATICA [16027310],-72.633333,7.833333,255.0,ZULIA,Río Zulia,Catatumbo,DURANIA,DURANIA,Limnigrafica,0.0,nan,NORTE DE SANTANDER,R0,nan,nan,nan,1.96,4.07,nan,nan,nan,nan
16047010,PTE ABREGO [16047010],-73.083056,8.043333,1430.0,TARRA,Río Tarra,Catatumbo,ABREGO,ABREGO,Limnigrafica,0.0,366.891459383,NORTE DE SANTANDER,R0,nan,nan,nan,0.57,5.58,nan,nan,nan,nan
16057040,QUINCE LETRAS [16057040],-73.246111,8.541111,360.0,CATATUMBO,Río Algodonal (Alto Catatumbo),Catatumbo,TEORAMA,TEORAMA,Limnigrafica,0.0,1397.69610084,NORTE DE SANTANDER,R0,nan,nan,nan,0.67,8.72,nan,nan,nan,nan
16067010,PTO BARCO-GABARRA [16067010],-72.9,9.003611,19.0,CATATUMBO,Bajo Catatumbo,Catatumbo,TIBU,TIBU,Limnigrafica,0.0,5182.8447677,NORTE DE SANTANDER,R0,nan,nan,nan,1.19,8.0,nan,nan,nan,nan
17019010,SAN ANDRES AUTOMATICA [17019010],-81.703389,12.556111,1.0,MAR CARIBE,San Andrés,Islas Caribe,SAN LUIS,SAN ANDRES,Meteorologica Marina,0.0,nan,SAN ANDRES PROVIDENCIA Y STA CATALINA,-bass,nan,nan,nan,2.09,nan,Nivel Bajo,nan,1.46,nan
21017030,CASCADA SIMON BOLI [21017030],-76.231722,1.8735,1272.0,MAGDALENA,Alto Magdalena,Alto Magdalena,SAN AGUSTIN,SAN AGUSTIN,Hidrologica Automatica Nivel - Precipitacion,1244.12,nan,HUILA,R0,nan,nan,nan,1.05,6.9,nan,nan,nan,nan
21037020,SAN MARCOS   [21037020],-75.944361,1.752417,1291.0,SUAZA,Río Suaza,Alto Magdalena,SAN MARCOS,ACEVEDO,Limnimetrica,0.0,353.109183553,HUILA,R0,nan,nan,nan,1.1,6.35,nan,nan,nan,nan
21057050,VEGA EL SALADO [21057050],-75.942167,2.331444,1150.0,LA PLATA,Río Páez,Alto Magdalena,VILLA LOSADA,LA PLATA,Limnigrafica,0.0,1214.55270863,HUILA,R0,nan,nan,nan,0.7,3.4,nan,nan,nan,nan
21057130,RIO CHIQUITO [21057130],-75.775667,2.665722,1400.0,NEGRO,Río Páez,Alto Magdalena,RIOCHIQUITO,PAEZ,Limnigrafica,0.0,nan,CAUCA,R0,nan,nan,nan,2.02,4.88,nan,nan,nan,nan
21097120,ESPERANZA LA   [21097120],-75.396583,2.755556,460.0,MAGDALENA,Juncal y otros Rios directos al Magdalena,Alto Magdalena,BETANIA,PALERMO,Limnigrafica,0.0,183.857512836,HUILA,R0,nan,nan,nan,1.85,6.36,nan,nan,nan,nan
21127030,STA MARIA[21127030],-75.592444,2.971778,1270.0,BACHE,Río Baché,Alto Magdalena,SANTA MARIA,SANTA MARIA,Limnigrafica,0.0,94.3807689959,HUILA,R0,nan,nan,nan,1.27,3.7,nan,nan,nan,nan
21147030,CARRASPOSO    [21147030],-74.876833,3.328139,730.0,CABRERA,Río Cabrera,Alto Magdalena,COLOMBIA,COLOMBIA,Limnigrafica,0.0,1667.85516603,HUILA,R0,nan,nan,nan,0.0,5.02,nan,nan,nan,nan
21187030,CUCUNUBA    [21187030],-75.12625,4.232139,535.0,LUISA,Río Luisa y otros directos al Magdalena,Alto Magdalena,VALLE DE SAN JUAN,VALLE DE SAN JUAN,Limnigrafica,0.0,260.788320993,TOLIMA,R0,nan,nan,nan,0.01,7.0,nan,nan,nan,nan
21197080,BONANZA LA HDA [21197080],-74.363583,4.400028,1520.0,BLANCO,Río Sumapaz,Alto Magdalena,AZAFRANAL,SILVANIA,Limnigrafica,0.0,nan,CUNDINAMARCA,R0,nan,nan,nan,1.65,6.2,nan,nan,nan,nan
21209200,CAMPIÑA LA [21209200],-74.79377778,4.30488889,425.0,BOGOTA,Río Bogotá,Alto Magdalena,GIRARDOT,GIRARDOT,Limnigrafica,0.0,nan,CUNDINAMARCA,R0,6.0,5.141803,4.283606,1.03,nan,nan,nan,nan,3.1
21217200,CARMEN EL   [21217200],-75.204556,4.297889,850.0,COELLO,Río Coello,Alto Magdalena,ROVIRA,ROVIRA,Limnigrafica,0.0,1112.43166792,TOLIMA,R0,nan,nan,nan,0.05,3.5,nan,nan,nan,nan
21227010,PIEDRAS    [21227010],-74.880667,4.537333,350.0,OPIA,Río Opía,Alto Magdalena,PIEDRAS,PIEDRAS,Limnigrafica,0.0,262.719469414,TOLIMA,R0,nan,nan,nan,0.01,5.36,nan,nan,nan,nan
21257090,ESMERALDA LA   [21257090],-74.853333,4.891,252.0,LAGUNILLA,Río Lagunilla y Otros Directos al Magdalena,Alto Magdalena,LERIDA,LERIDA,Limnigrafica,0.0,642.188595629,TOLIMA,R0,nan,nan,nan,0.08,4.42,nan,nan,nan,nan
21257100,NUEVA LA   [21257100],-74.971944,4.795083,470.0,RECIO,Río Lagunilla y Otros Directos al Magdalena,Alto Magdalena,LA SIERRA,LERIDA,Limnigrafica,0.0,647.902630764,TOLIMA,R0,nan,nan,nan,0.41,3.13,nan,nan,nan,1.11
22057060,MURALLA LA   [22057060],-75.470278,3.484111,522.0,SALDANA,Medio Saldaña,Saldaña,ATACO,ATACO,Limnigrafica,0.0,4406.0119749,TOLIMA,R0,nan,nan,nan,0.2,5.57,nan,nan,nan,nan
22077050,PIJAITO    [22077050],-75.306056,4.150306,800.0,CHILI,Rïo Cucuana,Saldaña,ROVIRA,ROVIRA,Limnigrafica,0.0,420.531143085,TOLIMA,R0,nan,nan,nan,0.2,2.9,nan,nan,nan,nan
23017040,ESPERANZA LA [23017040],-74.9055,5.20375,475.0,GUALI,Río Gualí,Medio Magdalena,SAN SEBASTIAN DE MARIQUITA,SAN SEBASTIAN DE MARIQUITA,Limnigrafica,0.0,447.315377999,TOLIMA,R0,nan,nan,nan,2.18,5.2,nan,nan,3.62,3.31
23067020,COLORADOS    [23067020],-74.593639,5.469611,286.0,NEGRO,Río Negro,Medio Magdalena,PUERTO SALGAR,PUERTO SALGAR,Limnigrafica,0.0,3127.46274076,CUNDINAMARCA,R0,nan,nan,nan,0.0,7.13,nan,nan,nan,nan
23067040,PTO LIBRE   [23067040],-74.631556,5.760528,154.0,NEGRO,Río Negro,Medio Magdalena,PUERTO BOYACA,PUERTO BOYACA,Limnigrafica,0.0,4572.34093225,BOYACA,R0,nan,nan,nan,0.4,6.45,nan,nan,nan,2.47
23067060,TOBIA [23067060],-74.447056,5.125306,620.0,NEGRO,Río Negro,Medio Magdalena,TOBIA,NIMAIMA,Limnigrafica,620.0,1115.75541996,CUNDINAMARCA,R0,3.0,2.5,2.0,0.33,5.21,nan,nan,nan,1.4
23067070,VILLETA [23067070],-74.4705,5.011306,790.0,VILLETA,Río Negro,Medio Magdalena,VILLETA,VILLETA,Limnimetrica,790.0,402.689634669,CUNDINAMARCA,R0,3.5,3.0,2.5,0.01,7.0,nan,nan,nan,nan
23067080,CHARCO LARGO [23067080],-74.345694,5.257139,940.0,NEGRO,Río Negro,Medio Magdalena,TALAUTA,EL PEÑON,Limnigrafica,0.0,711.220565216,CUNDINAMARCA,R0,2.5,1.985348,1.470696,0.34,4.0,nan,nan,nan,0.62
23087150,PTE REAL   [23087150],-75.379972,6.143389,2083.0,NEGRO,Río Nare,Medio Magdalena,RIONEGRO,RIONEGRO,Limnigrafica,0.0,320.566534927,ANTIOQUIA,R0,nan,nan,nan,1.05,5.12,nan,nan,nan,2.1
23087160,CARAMANTA    [23087160],-74.865222,6.50775,820.0,NUS,Río Nare,Medio Magdalena,YOLOMBO,YOLOMBO,Limnigrafica,0.0,285.143282494,ANTIOQUIA,R0,nan,nan,nan,0.05,4.99,nan,nan,nan,nan
23087190,GARRUCHA LA   [23087190],-74.938694,5.998472,403.0,SAMANA NORTE,Río Nare,Medio Magdalena,SAN LUIS,SAN LUIS,Limnimetrica,0.0,1525.09614861,ANTIOQUIA,R0,nan,nan,nan,0.5,8.5,nan,nan,nan,nan
23087230,PTO BELO   [23087230],-74.607167,6.212028,150.0,NARE,Río Nare,Medio Magdalena,PUERTO NARE,PUERTO NARE,Limnimetrica,0.0,nan,ANTIOQUIA,R0,nan,nan,nan,0.11,4.6,nan,nan,nan,nan
23087660,PTE LA FERIA [23087660],-75.337861,6.172667,2100.0,MARINILLA,Río Nare,Medio Magdalena,MARINILLA,MARINILLA,Limnigrafica,0.0,nan,ANTIOQUIA,R0,nan,nan,nan,1.2,5.37,nan,nan,nan,nan
23107020,BODEGA LA   [23107020],-74.406944,6.732194,177.0,REGLA,Rió San Bartolo y otros directos al Magdalena Medio,Medio Magdalena,CASABE,YONDO,Limnigrafica,0.0,2456.44895537,ANTIOQUIA,R0,nan,nan,nan,0.28,6.12,nan,nan,nan,nan
23127010,BORBUR    [23127010],-74.060778,5.6495,457.0,MINERO,Río Carare (Minero),Medio Magdalena,SAN PABLO DE BORBUR,SAN PABLO DE BORBUR,Limnigrafica,397.175,1564.43396765,BOYACA,R0,5.125,4.625,4.125,0.05,9.0,nan,nan,nan,nan
23127060,STA ROSA   [23127060],-74.098333,6.291944,160.0,CARARE,Río Carare (Minero),Medio Magdalena,CIMITARRA,CIMITARRA,Limnigrafica,0.0,4901.28528822,SANTANDER,R0,nan,nan,nan,0.01,6.98,nan,nan,nan,nan
23147040,AYACUCHO    [23147040],-73.769333,6.855806,95.0,LA COLORADA,Río Opón,Medio Magdalena,BARRANCABERMEJA,BARRANCABERMEJA,Limnimetrica,0.0,1450.68679575,SANTANDER,R0,nan,nan,nan,0.94,8.81,nan,nan,nan,nan
23197700,MAJADAS [23197700],-73.098772,7.158372,760.0,SURATA,Río Lebrija y otros directos al Magdalena,Medio Magdalena,BUCARAMANGA,BUCARAMANGA,Limnigrafica,758.495,nan,SANTANDER,R0,nan,nan,nan,0.8,3.4,nan,nan,nan,nan
24017590,PTE NACIONAL [24017590],-73.678031,5.873804,1650.0,SUAREZ,Río Suárez,Sogamoso,PUENTE NACIONAL,PUENTE NACIONAL,Limnigrafica,1580.97,2263.30537556,SANTANDER,R0,nan,nan,nan,0.55,3.1,nan,nan,nan,nan
24017600,MONIQUIRA [24017600],-73.570048,5.878284,1720.0,MONIQUIRA,Río Suárez,Sogamoso,MONIQUIRA,MONIQUIRA,Limnigrafica,1656.5,1163.05269502,BOYACA,R0,5.7,5.121802,4.543604,0.93,7.17,nan,nan,nan,1.5
24017640,CEIBA LA   [24017640],-73.306687,6.448214,900.0,SUAREZ,Río Suárez,Sogamoso,SIMACOTA,SIMACOTA,Limnimetrica,701.84,7020.56381369,SANTANDER,-bass,nan,nan,nan,1.55,9.8,nan,Nivel Bajo,nan,1.3
24017707,SAN BENITO-24017707  [24017707],-73.493281,6.118139,1057.0,nan,Río Suárez,Sogamoso,SAN BENITO,SAN BENITO,Limnigrafica,0.0,nan,SANTANDER,R0,nan,nan,nan,nan,nan,nan,nan,2.36,nan
24017740,PTE CHACON [24017740],-73.542139,5.677889,2130.0,CANE,Río Suárez,Sogamoso,VILLA DE LEYVA,VILLA DE LEYVA,Limnigrafica,0.0,180.461133749,BOYACA,R0,1.84,1.536009,1.232019,0.02,2.24,nan,nan,nan,0.38
24027070,MERIDA    [24027070],-73.15484,6.441861,1180.0,FONCE,Río Fonce,Sogamoso,PARAMO,PARAMO,Limnigrafica,1176.07,1546.61077171,SANTANDER,R0,nan,nan,nan,0.07,5.29,nan,nan,nan,nan
24037030,PALO EL   [24037030],-73.218083,5.668083,2600.0,TUTA,Río Chicamocha,Sogamoso,TUTA,TUTA,Limnigrafica,0.0,373.441082057,BOYACA,R0,nan,nan,nan,0.15,4.02,nan,nan,nan,nan
24037080,LA GRUTA   [24037080],-73.046861,5.567111,2611.305,PESCA,Río Chicamocha,Sogamoso,PESCA,PESCA,Limnigrafica,2609.4959,105.496086151,BOYACA,R0,nan,nan,nan,0.13,2.5,nan,nan,nan,nan
24037190,SAN RAFAEL   [24037190],-73.013881,5.807972,2485.906,CHICAMOCHA,Río Chicamocha,Sogamoso,TIBASOSA,TIBASOSA,Limnigrafica,2479.4704,1363.68551674,BOYACA,R0,4.56,4.224677,3.889354,0.25,4.86,nan,nan,nan,1.59
24037290,PTE CHAMEZA   [24037290],-72.906056,5.760056,2476.335,CHICAMOCHA,Río Chicamocha,Sogamoso,NOBSA,NOBSA,Limnigrafica,2469.015,2112.37091167,BOYACA,R0,5.81,5.500976,5.191951,0.43,5.28,nan,nan,nan,1.52
24037490,PTE TOTUMO   [24037490],-72.6375,6.437972,1200.0,NEVADO,Río Chicamocha,Sogamoso,BOAVITA,BOAVITA,Limnimetrica,0.0,1080.3392544,BOYACA,R0,nan,nan,nan,0.55,4.5,nan,nan,nan,nan
24037702,CORRALES AUTOM [24037702],-72.842517,5.828519,2411.0,nan,Río Chicamocha,Sogamoso,CORRALES,CORRALES,Limnimetrica,0.0,nan,BOYACA,R0,nan,nan,nan,nan,nan,nan,nan,1.74,nan
25017030,PICA PICA   [25017030],-75.679444,8.027778,96.0,SAN JORGE,Alto San Jorge,Bajo Magdalena- Cauca -San Jorge,MONTELIBANO,MONTELIBANO,Limnimetrica,96.0,2120.89247473,CORDOBA,R0,4.0,3.5,3.0,1.04,6.5,nan,nan,nan,nan
25027050,MARGENTO    [25027050],-74.952528,8.036472,45.0,CAUCA,Bajo San Jorge - La Mojana,Bajo Magdalena- Cauca -San Jorge,CAUCASIA,CAUCASIA,Limnigrafica,32.24,41517.6915853,ANTIOQUIA,R0,6.95,6.75,6.55,0.75,8.1,nan,nan,nan,5.33
25027120,MARRALU    [25027120],-75.239,8.313722,27.015,SAN JORGE,Bajo San Jorge - La Mojana,Bajo Magdalena- Cauca -San Jorge,AYAPEL,AYAPEL,Limnimetrica,19.0,nan,CORDOBA,R0,7.66,7.28,6.91,0.08,8.17,nan,nan,4.86,nan
25027180,SAN ANTONIO [25027180],-74.767528,9.039167,17.0,SAN JORGE,Bajo San Jorge - La Mojana,Bajo Magdalena- Cauca -San Jorge,MAGANGUE,MAGANGUE,Limnigrafica,10.67,nan,BOLIVAR,-O,5.73,5.58,5.43,0.02,8.52,Naranja,Naranja,5.68,5.7
25027220,SAN MARCOS   [25027220],-75.130861,8.655583,21.744,CGA. SAN MARCOS,Bajo San Jorge - La Mojana,Bajo Magdalena- Cauca -San Jorge,SAN MARCOS,SAN MARCOS,Limnimetrica,14.0,nan,SUCRE,R0,6.43,6.28,6.13,0.48,7.71,nan,nan,nan,nan
25027240,JEGUA [25027240],-74.965944,8.906306,19.61,SAN JORGE,Bajo San Jorge - La Mojana,Bajo Magdalena- Cauca -San Jorge,SAN BENITO ABAD,SAN BENITO ABAD,Limnigrafica,12.0,nan,SUCRE,-Y,5.7,5.55,5.4,0.04,7.77,Amarilla,Amarilla,5.44,5.41
25027270,LAS FLORES   [25027270],-74.776194,8.106167,38.0,CAUCA,Directos Bajo Cauca - Cga La Raya entre río Nechí y brazo de loba,Bajo Magdalena- Cauca -San Jorge,NECHI,NECHI,Limnigrafica,27.54,56012.5117981,ANTIOQUIA,R0,8.36,8.21,8.06,2.26,9.02,nan,nan,6.02,5.92
25027340,BEIRUT    [25027340],-75.135639,8.302139,25.84,CGA. DE AYAPEL,Bajo San Jorge - La Mojana,Bajo Magdalena- Cauca -San Jorge,AYAPEL,AYAPEL,Limnimetrica,15.59,nan,CORDOBA,-R,5.51,5.36,5.21,0.03,7.13,Roja,nan,5.77,nan
25027720,BARRANCONES [25027720],-73.772806,9.133917,31.981,CGA. ZAPATOSA,Bajo Cesar,Cesar,CHIMICHAGUA,CHIMICHAGUA,Limnigrafica,21.24,nan,CESAR,R0,nan,nan,nan,0.18,27.02,nan,nan,nan,nan
25027910,LA RAYA   [25027910],-74.559333,8.339139,30.014,CÑO CARIBONA,Directos Bajo Cauca - Cga La Raya entre río Nechí y brazo de loba,Bajo Magdalena- Cauca -San Jorge,SAN JACINTO DEL CAUCA,SAN JACINTO DEL CAUCA,Limnimetrica,22.07,1976.63948953,BOLIVAR,R0,6.75,6.6,6.45,0.5,7.53,nan,nan,3.39,nan
26017060,PTE ARAGON   [26017060],-76.496556,2.203028,2870.0,CAUCA,Alto Río Cauca,Cauca,PALETARA,PURACE,Limnigrafica,0.0,157.52287937,CAUCA,R0,nan,nan,nan,0.1,3.17,nan,nan,nan,nan
26027200,PTE CARRETERA   [26027200],-76.558194,2.53625,1726.0,PALACE,Río Palacé,Cauca,CALIBIO,POPAYAN,Limnimetrica,0.0,248.240752028,CAUCA,R0,nan,nan,nan,0.1,3.08,nan,nan,nan,nan
26057030,POTRERITO   [26057030],-76.585111,3.243389,1011.0,JAMUNDI,Ríos Claro y Jamundí,Cauca,POTRERITO,JAMUNDI,Limnigrafica,0.0,75.8718881115,VALLE DEL CAUCA,R0,nan,nan,nan,0.56,4.2,nan,nan,nan,nan
26127040,CARTAGO    [26127040],-75.899389,4.757556,914.0,LA VIEJA,Río La Vieja,Cauca,PUERTO CALDAS,PEREIRA,Limnigrafica,937.0,2788.44039575,RISARALDA,R0,9.0,8.5,8.0,0.04,8.1,nan,nan,nan,1.54
26147140,PTE NEGRO   [26147140],-75.85819,4.98776,920.0,RISARALDA,Río Risaralda,Cauca,BELALCAZAR,BELALCAZAR,Limnigrafica,0.0,801.738475935,CALDAS,R0,nan,nan,nan,0.08,4.85,nan,nan,nan,2.1
26157170,CONEJERAS2 AUTOM   [26157170],-75.373722,4.8175,4699.0,CLARO,Río Chinchiná,Cauca,NUEVO RIO CLARO,VILLAMARIA,Limnigrafica,0.0,nan,CALDAS,R0,nan,nan,nan,0.03,0.42,nan,nan,nan,nan
26157190,RIO CLARO AUTOM  [26157190],-75.451086,4.901022,2712.0,CLARO,Río Chinchiná,Cauca,NUEVO RIO CLARO,VILLAMARIA,Limnigrafica,0.0,nan,CALDAS,R0,nan,nan,nan,0.21,1.5,nan,nan,nan,nan
26157200,SIETECUERALES AUTOMATICA[26157200],-75.374639,4.860222,3794.0,CLARO,Río Chinchiná,Cauca,NUEVO RIO CLARO,VILLAMARIA,Limnigrafica,0.0,nan,CALDAS,R0,nan,nan,nan,0.4,0.94,nan,nan,nan,nan
26167070,IRRA    [26167070],-75.665861,5.268111,745.0,CAUCA,Rio Tapias y otros directos al Cauca,Cauca,TAPIAS,NEIRA,Limnigrafica,0.0,24570.1603286,CALDAS,R0,nan,nan,nan,0.53,7.69,nan,nan,nan,2.42
26187040,QUITASUENO [26187040],-75.54125,5.712389,580.0,ARMA,Río Arma,Cauca,AGUADAS,AGUADAS,Limnigrafica,0.0,1030.35738127,CALDAS,R0,nan,nan,nan,0.32,5.0,nan,nan,nan,nan
26197020,BRASILIA    [26197020],-75.935306,5.825444,820.0,BOLIVAR,Río San Juan,Cauca,CIUDAD BOLIVAR,CIUDAD BOLIVAR,Limnigrafica,0.0,228.442954323,ANTIOQUIA,R0,nan,nan,nan,0.11,3.0,nan,nan,1.49,nan
26217010,GALERA LA   [26217010],-75.86425,6.554861,662.0,TONUSCO,Directos Río Cauca entre Río San Juan y Pto Valdivia (mi),Cauca,SANTAFE DE ANTIOQUIA,SANTAFE DE ANTIOQUIA,Limnigrafica,0.0,319.013291483,ANTIOQUIA,R0,nan,nan,nan,0.26,8.83,nan,nan,nan,nan
26217050,CAÑAFISTO    [26217050],-75.819361,6.417417,534.0,CAUCA,Directos Río Cauca entre Río San Juan y Pto Valdivia (mi),Cauca,SANTAFE DE ANTIOQUIA,SANTAFE DE ANTIOQUIA,Limnigrafica,461.171,32706.472785,ANTIOQUIA,R0,5.2,5.0,4.9,0.27,6.36,nan,nan,nan,nan
26247010,PALMIRA HDA   [26247010],-75.389167,7.796667,80.0,MAN,Río Taraza - Río Man,Cauca,CACERES,CACERES,Limnigrafica,0.0,344.148054428,ANTIOQUIA,R0,nan,nan,nan,0.22,7.18,nan,nan,nan,nan
27027060,BRISAS DEL NECHI [27027060],-75.380833,6.939694,1880.0,NECHI,Alto Nechí,Nechí,YARUMAL,YARUMAL,Limnigrafica,0.0,238.501430341,ANTIOQUIA,R0,nan,nan,nan,0.53,4.66,nan,nan,nan,nan
28037030,PTE SALGUERO   [28037030],-73.236056,10.386167,113.0,CESAR,Medio Cesar,Cesar,VALLEDUPAR,VALLEDUPAR,Limnigrafica,0.0,3426.43290881,CESAR,R0,nan,nan,nan,0.0,7.81,nan,nan,nan,0.7
28037090,PTE CANOAS   [28037090],-73.646389,9.648528,45.0,CESAR,Medio Cesar,Cesar,EL PASO,EL PASO,Limnimetrica,40.0236,10379.4081683,CESAR,R0,nan,nan,nan,0.01,5.97,nan,nan,nan,nan
28047020,PUEBLO BELLO [28047020],-73.588833,10.419847,1125.0,ARIGUANI,Río Ariguaní,Cesar,PUEBLO BELLO,PUEBLO BELLO,Limnigrafica,0.0,34.4881336916,CESAR,R0,nan,nan,nan,0.02,4.06,nan,nan,0.76,nan
28047050,PALMARIGUANI [28047050],-73.958806,9.930972,80.0,ARIGUANI,Río Ariguaní,Cesar,EL DIFICIL,ARIGUANI,Limnigrafica,0.0,2554.73371822,MAGDALENA,R0,nan,nan,nan,0.1,6.0,nan,nan,nan,nan
29037701,GUAJARO COMPUERTAS [29037701],-75.073889,10.41,20.0,CANAL DEL DIQUE,Canal del Dique margen derecho,Bajo Magdalena,SAN CRISTOBAL,SAN CRISTOBAL,Limnigrafica,0.0,nan,BOLIVAR,R0,nan,nan,nan,nan,nan,nan,nan,nan,nan
29037702,CAPOTE AUTOM [29037702],-75.165556,10.278611,9.0,CANAL DEL DIQUE,Canal del Dique margen izquierda,Bajo Magdalena,MAHATES,MAHATES,Limnigrafica,0.0,nan,BOLIVAR,R0,nan,nan,nan,nan,nan,nan,nan,nan,nan
29067060,PTO RICO HDA [29067060],-74.133333,10.5,55.0,FUNDACION,Cga Grande de Santa Marta,Bajo Magdalena,ARACATACA,ARACATACA,Limnigrafica,0.0,971.841995566,MAGDALENA,R0,nan,nan,nan,0.6,5.58,nan,nan,2.51,nan
29067150,GANADERIA CARIBE [29067150],-74.126667,10.574917,67.0,ARACATACA,Cga Grande de Santa Marta,Bajo Magdalena,ARACATACA,ARACATACA,Limnigrafica,60.61,737.486395734,MAGDALENA,R0,3.69,3.19,2.69,0.1,3.35,nan,nan,nan,0.4
29067160,PTE SEVILLA   [29067160],-74.028639,10.802667,1000.0,SEVILLA,Cga Grande de Santa Marta,Bajo Magdalena,CIENAGA,CIENAGA,Limnigrafica,0.0,163.649508818,MAGDALENA,R0,nan,nan,nan,0.76,8.25,nan,nan,nan,nan
35027100,CARAZA [35027100],-74.010194,4.428639,2020.0,UNE,Río Guayuriba,Meta,ABASTICOS,CHIPAQUE,Limnigrafica,0.0,160.480059199,CUNDINAMARCA,R0,nan,nan,nan,0.21,2.8,nan,nan,nan,nan
35027140,PTE CARRETERA - [35027140],-73.76591,4.051072,575.0,GUAYURIBA,Río Guayuriba,Meta,VILLAVICENCIO,VILLAVICENCIO,Limnigrafica,0.0,2814.86993587,META,R0,6.02,5.62,5.19,0.38,8.0,nan,nan,nan,5.1
35027500,QDA RINCONAUTOM  [35027500],-73.857389,4.664944,2553.0,QUEBRADA RINCON,Río Guayuriba,Meta,MUNDONUEVO,LA CALERA,Limnigrafica,0.0,nan,CUNDINAMARCA,R0,nan,nan,nan,0.21,0.99,nan,nan,nan,nan
35027510,CALOSTROS BAJO   [35027510],-73.863592,4.664319,2494.0,CALOSTROS,Río Guayuriba,Meta,MUNDONUEVO,LA CALERA,Limnigrafica,0.0,nan,CUNDINAMARCA,R0,nan,nan,nan,0.08,1.82,nan,nan,nan,nan
35087020,PAEZ [35087020],-73.068417,5.082611,873.0,LENGUPA,Río Lengupá,Meta,CAMPOHERMOSO,CAMPOHERMOSO,Limnigrafica,831.9871,1035.08401483,BOYACA,-Y,3.0079,2.5079,2.0079,0.24,4.5,nan,Amarilla,1.5,2.25
35097080,CEIBAL EL [35097080],-73.034167,5.081389,700.0,UPIA,Río Upía,Meta,PAEZ,PAEZ,Limnimetrica,0.0,670.122163196,BOYACA,R0,4.3,3.9,3.5,0.3,6.5,nan,nan,nan,3.24
35107040,GUAICARAMO [35107040],-73.046519,4.689094,264.0,UPIA,Río Upía,Meta,SABANALARGA,SABANALARGA,Limnigrafica,259.11,8142.51545092,CASANARE,R0,nan,nan,nan,0.0,9.0,nan,nan,nan,nan
35197020,VADO HONDO [35197020],-72.754806,5.506806,2831.0,CUSIANA,Río Cusiana,Meta,AQUITANIA,AQUITANIA,Limnigrafica,0.0,209.373619683,BOYACA,R0,nan,nan,nan,0.01,4.1,nan,nan,nan,nan
35197030,LOS ESTEROS[35197030]   [35197030],-72.5685,5.179556,289.673,UNETE,Río Cusiana,Meta,AGUAZUL,AGUAZUL,Limnigrafica,283.371,247.347056294,CASANARE,R0,nan,nan,nan,0.0,8.45,nan,nan,0.6,nan
35197180,MANI [35197180],-72.291389,4.817,290.0,CUSIANA,Río Cusiana,Meta,MANI,MANI,Limnimetrica,627.4691,3094.69202527,CASANARE,-Y,4.15,3.7,3.2,0.62,5.6,nan,Amarilla,nan,3.42
35197190,PAJARITO AUTOMATICA [35197190],-72.701944,5.283472,770.0,CUSIANA,Río Cusiana,Meta,PAJARITO,PAJARITO,Limnigrafica,770.0,507.637590114,BOYACA,R0,7.24,6.74,6.24,1.29,8.0,nan,nan,nan,1.9
35217010,PTE YOPAL   [35217010],-72.412697,5.367547,374.65,CRAVO SUR,Río Cravo Sur,Meta,YOPAL,YOPAL,Limnigrafica,367.55,1098.29171968,CASANARE,R0,3.48,3.099659,2.719319,0.0,5.0,nan,nan,nan,2.4
35217030,PTE LA CABAÑA  [35217030],-72.455636,5.437706,478.582,CRAVO SUR,Río Cravo Sur,Meta,YOPAL,YOPAL,Limnimetrica,471.196,1008.71054654,CASANARE,R0,5.39,4.124658,2.859316,0.0,5.1,nan,nan,1.22,nan
35217060,PLAYON EL   [35217060],-72.235556,5.543694,271.0,TOCARIA,Río Cravo Sur,Meta,NUNCHIA,NUNCHIA,Limnigrafica,267.6844,1386.38400237,CASANARE,R0,6.8156,6.3156,5.8156,0.0,11.12,nan,nan,nan,2.0
35227070,OROCUE BZO DERECHO [35227070],-71.333333,4.8,126.0,META,Caño Guanápalo y otros directos al Meta,Meta,OROCUE,OROCUE,Limnimetrica,0.0,nan,CASANARE,R0,nan,nan,nan,0.6,5.4,nan,nan,nan,nan
37017040,PTE LOPEZ [37017040],-72.633889,7.203333,1862.0,CHITAGA,Río Chítaga,Arauca,CACOTA,CACOTA,Limnigrafica,0.0,845.706884409,NORTE DE SANTANDER,R0,3.75,3.0,2.5,0.34,4.48,nan,nan,nan,nan
37027010,PEÑA DE LOS MICOS [37027010],-72.424778,7.196972,870.0,MARGUA,Río Margua,Arauca,TOLEDO,TOLEDO,Limnigrafica,0.0,2568.45278894,NORTE DE SANTANDER,R0,nan,nan,nan,0.21,9.32,nan,nan,nan,nan
37037010,PASO DE LA CANOA [37037010],-72.152611,7.034556,374.0,COBUGON,Río Cobugón - Río Cobaría,Arauca,CUBARA,CUBARA,Limnigrafica,0.0,1519.6796186,BOYACA,R0,4.9,4.0,3.4,0.01,7.5,nan,nan,nan,nan
42077020,MITU AUTOMATICA [42077020],-70.239111,1.259556,180.0,VAUPES,Bajo Vaupés,Vaupes,MITU,MITU,Limnigrafica,0.0,21513.7399504,VAUPES,R0,10.2,9.535564,8.931129,1.49,10.34,nan,nan,nan,nan
44017070,STA ROSA [4401707],-76.562222,1.705,1620.0,CAQUETA,Alto Caqueta,Caquetá,SANTA ROSA,SANTA ROSA,Limnigrafica,1605.4916,683.735285862,CAUCA,R0,4.7084,4.2084,3.7084,0.44,5.0,nan,nan,nan,0.96
44017110,ANDAQUI [44017110],-76.548889,1.050917,460.0,CAQUETA,Alto Caqueta,Caquetá,SANTA ROSA,SANTA ROSA,Limnigrafica,315.69,4468.22729442,CAUCA,R0,nan,nan,nan,0.86,8.61,nan,nan,nan,nan
44017120,PIEDRA LISA II  [44017120],-76.661028,1.213611,849.0,MOCOA,Alto Caqueta,Caquetá,PUEBLO VIEJO,MOCOA,Limnigrafica,0.0,326.7055755,PUTUMAYO,R0,nan,nan,nan,0.06,4.55,nan,nan,nan,nan
44037080,MORELIA    [44037080],-75.728222,1.501722,253.0,BODOQUERO,Río Orteguaza,Caquetá,MORELIA,MORELIA,Limnigrafica,0.0,335.052769755,CAQUETA,R0,nan,nan,nan,0.5,6.0,nan,nan,nan,nan
44197020,VILLARREAL [44197020],-69.61925,-1.309528,102.0,CAQUETA,Río Caqueta Bajo,Caquetá,LA PEDRERA,LA PEDRERA,Limnigrafica,89.357,nan,AMAZONAS,R0,nan,nan,nan,0.0,15.26,nan,nan,nan,nan
47017070,EDEN EL   [47017070],-76.949472,1.116139,2087.0,PUTUMAYO,Alto Río Putumayo,Putumayo,SAN ANDRES,SANTIAGO,Limnigrafica,2053.07,474.799086213,PUTUMAYO,R0,4.53,4.03,3.53,0.22,6.09,nan,nan,nan,1.5
47017110,MONOPAMBA [47017110],-77.306944,0.807778,1650.0,SUCIO,Alto Río Putumayo,Putumayo,MONOPAMBA,PUERRES,Limnigrafica,1566.6209,179.644193026,NARINO,R0,6.3791,5.8791,5.3791,0.01,4.64,nan,nan,nan,nan
47017160,PTE TEXAS [47017160],-76.576944,0.582694,250.0,PUTUMAYO,Alto Río Putumayo,Putumayo,SANTANA,PUERTO ASIS,Limnimetrica,0.0,3504.58466669,PUTUMAYO,R0,nan,nan,nan,0.18,10.0,nan,nan,nan,3.92
47017170,PICUDO EL [47017170],-76.83575,0.488833,360.0,GUAMUES,Alto Río Putumayo,Putumayo,SAN VICENTE DE LUZON,ORITO,Limnigrafica,287.2,nan,PUTUMAYO,R0,11.1,10.6,10.1,0.03,8.7,nan,nan,nan,3.2
51027020,PILISPI [51027020],-77.985139,1.206083,1259.0,GUIZA,Río Mira,Mira,RICAURTE,RICAURTE,Limnimetrica,0.0,424.143579267,NARINO,R0,nan,nan,nan,nan,3.95,nan,nan,nan,1.23
51027050,PIPIGUAY    [51027050],-78.097222,1.236944,730.0,GUIZA,Río Mira,Mira,VEGAS,RICAURTE,Limnigrafica,0.0,683.526401517,NARINO,R0,nan,nan,nan,nan,6.2,nan,nan,1.59,nan
51039010,TUMACO AUTOMATICA [51039010],-78.730278,1.819306,0.0,PACIFICO,Río Mira,Mira,DISTRITO ESPECIAL INDUSTRIAL PORTUARIO BIODIVERSO,SAN ANDRES DE TUMACO,Meteorologica Marina,0.0,nan,NARINO,R0,3.59,nan,nan,nan,nan,nan,nan,nan,nan
52017020,PUERTO NUEVO [5201702],-77.246389,1.908889,525.0,PATIA,Río Patia Alto,Patía,PUERTO NUEVO,LEIVA,Limnigrafica,0.0,5105.30162714,NARINO,R0,nan,nan,nan,nan,3.85,nan,nan,nan,nan
52017030,FONDA LA [52017030],-77.046667,2.147778,700.0,PATIA,Río Patia Alto,Patía,LA FONDA,PATIA,Limnigrafica,0.0,1543.93154595,CAUCA,R0,nan,nan,nan,nan,7.6,nan,nan,nan,nan
52017100,PTE CARRETERA   [52017100],-76.849111,2.356194,960.0,TIMBIO,Río Patia Alto,Patía,CUATRO ESQUINAS,EL TAMBO,Limnigrafica,0.0,nan,CAUCA,R0,nan,nan,nan,nan,6.89,nan,nan,nan,nan
52047020,PUENTE JUANAMBU   [52047020],-77.310333,1.517472,815.0,JUANAMBU,Río Juananbú,Patía,CHACHAGUI,CHACHAGUI,Limnigrafica,0.0,1342.46228362,NARINO,R0,nan,nan,nan,nan,5.05,nan,nan,nan,nan
52057010,PILCUAN [52057010],-77.472806,1.021778,1780.0,GUAITARA,Río Guáitara,Patía,PILCUAN VIEJO (2),IMUES,Limnigrafica,0.0,1249.09812394,NARINO,R0,nan,nan,nan,nan,6.0,nan,nan,1.32,0.78
52057050,SAN PEDRO [5205705],-77.482278,1.383,850.0,GUAITARA,Río Guáitara,Patía,SAN PEDRO,EL TAMBO,Limnigrafica,0.0,2513.61103586,NARINO,R0,nan,nan,nan,nan,7.3,nan,nan,nan,nan
53119010,BUENAVENTURA IDEAM   [53119010],-77.062167,3.890306,1.0,PACIFICO,Dagua - Buenaventura - Bahia Málaga,Tapaje - Dagua - Directos,DISTRITO ESPECIAL INDUSTRIAL PORTUARIO BIODIVERSO,BUENAVENTURA,Meteorologica Marina,0.0,nan,VALLE DEL CAUCA,R0,nan,nan,nan,nan,nan,nan,nan,nan,nan
54057010,NOANAMA ASERRIO   [54057010],-76.933417,4.67275,16.0,SAN JUAN,Río Capoma y otros directos al San Juan,San Juán,NOANAMA,MEDIO SAN JUAN,Limnigrafica,0.0,9286.90129812,CHOCO,R0,nan,nan,nan,nan,10.52,nan,nan,nan,nan
52057100,RUMICHACA - AUT [52057100],-77.66197778,0.813786111,2582.0,GUAITARA,Río Guáitara,Patía,IPIALES,IPIALES,Limnigrafica,0.0,nan,NARINO,R0,nan,nan,nan,nan,nan,nan,nan,nan,0.51
35237030,TRINIDAD PAUTO - AUT [35237030],-71.668361,5.414389,178.0,nan,Río Pauto,Meta,TRINIDAD,TRINIDAD,Limnigrafica,nan,nan,CASANARE,R0,nan,nan,nan,nan,nan,nan,nan,nan,2.95
35217090,LABRANZA GRANDE AUT [35217090],-72.583556,5.566917,1125.0,RIO CRAVO SUR,Río Cravo Sur,Meta,LABRANZAGRANDE,LABRANZAGRANDE,Limnigrafica,nan,654.347566392,BOYACA,R0,nan,nan,nan,nan,nan,nan,nan,0.2,nan
54037050,PR CHOCO- SIPI [54037050],-76.7402,4.6929,nan,nan,Río Sipí,San Juán,SIPI,SIPI,Limnigrafica,nan,nan,CHOCO,R0,nan,nan,nan,nan,nan,nan,nan,nan,nan
54057020,PR CHOCO- LITORAL SAN JUAN [54057020],-77.0218,4.2454,nan,nan,Ríos Calima y  Bajo San Juan,San Juán,LITORAL DE SAN JUAN,LITORAL DE SAN JUAN,Limnigrafica,nan,nan,CHOCO,R0,nan,nan,nan,nan,nan,nan,nan,nan,nan
54027050,PR CHOCO- RIO IRO [54027050],-76.6656,5.1166,nan,nan,Río Tamaná y otros Directos San Juan,San Juán,RIO IRO (STA RITA),RIO IRO (STA RITA),Limnigrafica,nan,nan,CHOCO,R0,nan,nan,nan,nan,nan,nan,nan,nan,nan
11017020,PR CHOCO- BAGADO [11017020],-76.4179,5.412,nan,nan,Río Andágueda,Atrato - Darién,BAGADO,BAGADO,Limnigrafica,nan,nan,CHOCO,R0,nan,nan,nan,nan,nan,nan,nan,nan,nan
28017150,CHEMESQUEMENA [28017150],-73.40222222,10.71222222,1160.0,GUATAPURI,Alto Cesar,Cesar,VALLEDUPAR,VALLEDUPAR,Limnimetrica,nan,nan,nan,R0,nan,nan,nan,nan,nan,nan,nan,nan,1.3
2105700099,PUENTE COHETANDO[2105700099],-75.98761,2.5791777,1468.0,nan,Río Páez,Alto Magdalena,BELALCAZAR,PAEZ,Limnigrafica,nan,nan,CAUCA,R0,nan,nan,nan,nan,nan,nan,nan,nan,nan
2301700089,GUALI ALERTAS HONDA [2301700089],-74.97173,5.15318,721.0,nan,Río Gualí,Medio Magdalena,FRESNO,FRESNO,Limnigrafica,nan,nan,TOLIMA,R0,nan,nan,nan,nan,nan,nan,nan,nan,nan
2319700096,SAN JUAN DE LOS CHORROS [2319700096],-73.75927777,7.692805556,64.0,nan,Río Lebrija y otros directos al Magdalena,Medio Magdalena,nan,nan,Limnigrafica,nan,nan,nan,R0,nan,nan,nan,nan,nan,nan,nan,nan,nan
2401700091,LAS MINAS[2401700091],-73.21476,6.746503,nan,nan,Río Suárez,Sogamoso,nan,VILLANUEVA,Limnigrafica,nan,nan,SANTANDER,R0,nan,nan,nan,nan,nan,nan,nan,nan,nan
2601700104,MOLINOS  [2601700104],-76.57428,2.439472,nan,nan,Alto Río Cauca,Cauca,nan,POPAYÁN,Limnigrafica,nan,nan,CAUCA,R0,nan,nan,nan,nan,nan,nan,nan,nan,nan
3502700090,GUAYURIBA CIERRE [3502700090],-73.2709972,3.9580694,nan,nan,Río Guayuriba,Meta,nan,PUERTO LOPEZ,Limnigrafica,nan,nan,META,R0,nan,nan,nan,nan,nan,nan,nan,nan,nan
4403700097,SUCRE [4403700097],-75.65081,1.784472,1030.0,nan,Río Orteguaza,Caquetá,FLORENCIA,FLORENCIA,Hidrologica Automatica Nivel - Precipitacion,nan,nan,CAQUETA,R0,nan,nan,nan,nan,nan,nan,nan,nan,nan
3518700145,TUA BALNEARIO - AUT [3518700145 ],-72.90088889,4.88565,412.0,nan,Río Túa y otros directos al Meta,Meta,nan,nan,Limnigrafica,nan,nan,CASANARE,R0,nan,nan,nan,nan,nan,nan,nan,nan,nan
3602700101,SAN SALVADOR - AUT   [3602700101],-71.61848333,6.22768056,178.0,nan,Río Casanare,Casanare,TAME,TAME,Limnigrafica,nan,nan,ARAUCA,R0,nan,nan,nan,nan,nan,nan,nan,nan,nan
3502700146,GUAYABETAL RIO NEGRO 1 [3502700146],-73.81876389,4.23186389,1210.0,Canal Rio Negro,Río Guayuriba,Meta,GUAYABETAL,GUAYABETAL,Limnigrafica,nan,nan,CUNDINAMARCA,R0,nan,nan,nan,nan,nan,nan,nan,nan,nan
3502700147,GUAYABETAL RIO NEGRO 2 [3502700147],-73.81568056,4.21605,1210.0,Canal Rio Negro,Río Guayuriba,Meta,GUAYABETAL,GUAYABETAL,Limnigrafica,nan,nan,CUNDINAMARCA,R0,nan,nan,nan,nan,nan,nan,nan,0.84,nan
2501700189,URÉ [2501700189],-75.56616667,7.91333333,200.0,MAGDALENA,Alto San Jorge,Bajo Magdalena- Cauca -San Jorge,SAN JOSE DE URE,SAN JOSE DE URE,Limnigrafica,nan,nan,CORDOBA,R0,nan,nan,nan,nan,nan,nan,nan,nan,nan
2502700206,CECILIA  [2502700206],-75.031832,8.463261,nan,Caño Viloria,Bajo San Jorge - La Mojana,Bajo Magdalena- Cauca -San Jorge,CECILIA,AYAPEL,Limnigrafica,nan,nan,CORDOBA,R0,nan,nan,nan,nan,nan,nan,nan,nan,nan
11047020,QUIBDO AUTOM   [11047020],-76.662258,5.697992,20.83,ATRATO,Río Cabi y otros Directos Atrato (md),Atrato - Darién,SAN FRANCISCO DE QUIBDO,QUIBDO,Hidrologica Automatica Nivel - Precipitacion,21.97,4751.04865936,CHOCO,R0,6.5,5.623037,4.746074,0.06,9.0,nan,nan,nan,4.73
13027040,CAÑO BARRO - AUT [13027040],-74.96043889,8.235847222,24.0,CANO BARRO,Bajo San Jorge - La Mojana,Bajo Magdalena- Cauca -San Jorge,AYAPEL,AYAPEL,Hidrologica Automatica Nivel - Precipitacion,20.45,nan,CORDOBA,R0,3.9,3.67,3.45,0.01,5.96,nan,nan,nan,nan
13067020,MONTERIA  AUTOMATICA [13067020],-75.892417,8.751611,14.6,SINU,Bajo Sinú,Sinú,MONTERIA,MONTERIA,Hidrologica Automatica Nivel - Precipitacion,8.674,8666.49727397,CORDOBA,R0,5.826,5.326,4.826,0.01,6.0,nan,nan,nan,1.6
14019030,ESC NAVAL CIOH AUTOM [14019030],-75.533944,10.391056,1.0,MAR CARIBE,Arroyos Directos al Caribe,Caribe - Litoral,DISTRITO TURISTICO Y CULTURAL DE CARTAGENA DE INDIAS,CARTAGENA,Hidrologica Automatica Nivel - Precipitacion,0.0,nan,BOLIVAR,R0,nan,nan,nan,nan,nan,nan,nan,0.78,nan
15067220,PTE CARRETERA [15067220],-72.855917,11.510525,7.0,RIO RANCHERIA,Río Ranchería,Caribe - Guajira,nan,RIOHACHA,Limnigrafica,0.0,nan,LA GUAJIRA,R0,nan,nan,nan,1.05,4.93,nan,nan,nan,nan
16017020,LA DONJUANA AUTOMATICA [16017020],-72.605472,7.687972,730.0,PAMPLONITA,Río Pamplonita,Catatumbo,CHINACOTA,CHINACOTA,Hidrologica Automatica Nivel - Precipitacion,0.0,420.104562865,NORTE DE SANTANDER,R0,2.9,2.5,2.2,0.02,3.13,nan,nan,nan,1.42
16027300,PTE CAPIRA AUTOMATICA [16027300],-72.771139,7.537194,1320.0,ZULIA,Río Zulia,Catatumbo,CUCUTILLA,CUCUTILLA,Hidrologica Automatica Nivel - Precipitacion,0.0,nan,NORTE DE SANTANDER,R0,nan,nan,nan,1.31,3.3,nan,nan,nan,nan
16057030,LA CABAÑA AUTOMATICA[16057030],-73.31825,8.197806,1220.0,ALGODONAL,Río Algodonal (Alto Catatumbo),Catatumbo,OCAÑA,OCAÑA,Hidrologica Automatica Nivel - Precipitacion,0.0,536.17571359,NORTE DE SANTANDER,R0,nan,nan,nan,0.01,3.71,nan,nan,nan,nan
21057060,PAICOL AUTOM   [21057060],-75.761556,2.45925,788.06,PAEZ,Río Páez,Alto Magdalena,TESALIA,TESALIA,Hidrologica Automatica Nivel - Precipitacion,779.684,4843.42928877,HUILA,R0,10.116,9.616,9.116,0.72,7.0,nan,nan,nan,3.1
21097070,PTE SANTANDER [21097070],-75.308528,2.942611,431.265,MAGDALENA,Rio Fortalecillas y otros,Alto Magdalena,AMBORCO,PALERMO,Hidrologica Automatica Nivel - Precipitacion,419.9,15126.8676412,HUILA,R0,6.5,6.0,5.5,1.36,6.56,nan,nan,3.83,nan
21117100,PUEBLO NUEVO AUTOM [21117100],-75.088833,2.827444,1280.0,CEIBAS,Rio Fortalecillas y otros,Alto Magdalena,NEIVA,NEIVA,Hidrologica Automatica Nivel - Precipitacion,1272.465,nan,HUILA,R0,nan,nan,nan,0.0,3.05,nan,nan,nan,nan
21137010,PURIFICACION AUTOM   [21137010],-74.935733,3.84945,291.249,MAGDALENA,Río Aipe - Río Chenche y otros directos al Magdalena,Alto Magdalena,PURIFICACION,PURIFICACION,Hidrologica Automatica Nivel - Precipitacion,281.073,25504.9233658,TOLIMA,R0,8.027,7.527,7.027,1.28,9.13,nan,nan,4.59,4.02
21137030,PTE CARRETERA [21137030],-75.250972,3.263417,368.84,AIPE,Río Aipe - Río Chenche y otros directos al Magdalena,Alto Magdalena,AIPE,AIPE,Hidrologica Automatica Nivel - Precipitacion,368.84,659.104572337,HUILA,R0,nan,nan,nan,0.0,4.75,nan,nan,nan,nan
21137050,ANGOSTURA RIO   [21137050],-75.118944,3.44325,340.273,MAGDALENA,Río Aipe - Río Chenche y otros directos al Magdalena,Alto Magdalena,PUEBLO NUEVO,NATAGAIMA,Hidrologica Automatica Nivel - Precipitacion,331.845,22281.1616784,TOLIMA,R0,10.555,10.055,9.555,1.9,9.7,nan,nan,nan,nan
21167060,SAN PABLO TOLIMA  [21167060],-74.656833,3.926528,640.0,CUINDE,Río Prado,Alto Magdalena,VILLARRICA,VILLARRICA,Hidrologica Automatica Nivel - Precipitacion,0.0,201.478721869,TOLIMA,R0,7.69,7.0,6.5,1.6,4.94,nan,nan,nan,2.11
21167080,LA MORA AUTOM  [21167080],-74.826389,3.725278,1425.0,NEGRO,Río Prado,Alto Magdalena,PRADO,PRADO,Hidrologica Automatica Nivel - Precipitacion,406.0,439.692397327,TOLIMA,R0,5.0,4.8,4.5,1.76,7.4,nan,nan,nan,2.51
21197010,EL PROFUNDO AUTOMATICA [21197010],-74.504278,4.028361,1860.0,SUMAPAZ,Río Sumapaz,Alto Magdalena,SIMON BOLIVAR,CABRERA,Hidrologica Automatica Nivel - Precipitacion,1860.0,958.101633794,CUNDINAMARCA,R0,4.5,4.0,3.5,0.44,7.94,nan,nan,nan,1.96
21209920,STA ROSITA AUTOM  [21209920],-73.753694,5.105944,2594.927,BOGOTA,Río Bogotá,Alto Magdalena,SANTA ROSITA,SUESCA,Hidrologica Automatica Nivel - Precipitacion,2589.037,nan,CUNDINAMARCA,R0,2.963,2.463,1.963,0.26,nan,nan,nan,nan,1.5
21217180,MONTEZUMA [21217180],-75.286056,4.482056,1450.0,COMBEIMA,Río Coello,Alto Magdalena,IBAGUE,IBAGUE,Hidrologica Automatica Nivel - Precipitacion,0.0,171.875004255,TOLIMA,R0,2.2,2.072142,1.944285,0.0,3.65,nan,nan,nan,nan
21237010,NARIÑO AUTOM   [21237010],-74.838167,4.387861,251.79,MAGDALENA,Río Opía,Alto Magdalena,NARINO,NARINO,Hidrologica Automatica Nivel - Precipitacion,240.11,48130.1871468,CUNDINAMARCA,R0,7.99,7.49,6.99,0.08,10.3,nan,nan,nan,2.63
21237020,ARRANCAPLUMAS    [21237020],-74.725778,5.200722,203.481,MAGDALENA,Río Lagunilla y Otros Directos al Magdalena,Alto Magdalena,PUERTO BOGOTA,GUADUAS,Hidrologica Automatica Nivel - Precipitacion,188.583,54493.7463172,CUNDINAMARCA,R0,9.217,8.717,8.217,0.48,11.55,nan,nan,nan,nan
21257120,PTE GATO NEGRO [21257120],-75.089806,4.940194,1135.0,LAGUNILLA,Río Lagunilla y Otros Directos al Magdalena,Alto Magdalena,LIBANO,LIBANO,Hidrologica Automatica Nivel - Precipitacion,0.0,175.137568466,TOLIMA,R0,3.0,2.75,2.5,0.22,3.3,nan,nan,nan,nan
22057010,PIEDRAS DE COBRE  [22057010],-75.104611,3.910056,316.0,SALDANA,Río Tetuán - Río Ortega,Saldaña,ORTEGA,ORTEGA,Hidrologica Automatica Nivel - Precipitacion,325.0,7750.57028501,TOLIMA,R0,6.0,5.5,5.0,0.0,6.5,nan,nan,nan,nan
23037010,PTO SALGAR AUTOM  [23037010],-74.661917,5.469222,172.17,MAGDALENA,Directos al Magdalena entre Ríos Seco y Negro (md),Medio Magdalena,PUERTO SALGAR,PUERTO SALGAR,Hidrologica Automatica Nivel - Precipitacion,165.92,56532.513242,CUNDINAMARCA,R0,6.18,5.68,5.18,1.05,7.1,nan,nan,nan,2.5
23057140,SAN MIGUEL AUTOM  [23057140],-74.725556,5.730833,160.0,LA MIEL,Río La Miel (Samaná),Medio Magdalena,SONSON,SONSON,Hidrologica Automatica Nivel - Precipitacion,176.0,2330.50009826,ANTIOQUIA,R0,5.0,4.4,4.1,0.64,5.72,nan,nan,2.04,2.2
23087210,CANTERAS AUTOM   [23087210],-74.6775,6.279444,127.0,NARE,Río Nare,Medio Magdalena,PUERTO NARE,PUERTO NARE,Hidrologica Automatica Nivel - Precipitacion,0.0,4714.61732218,ANTIOQUIA,R0,11.0,10.5,9.8,1.06,14.2,nan,nan,nan,nan
23097030,PTO BERRIO AUTOMATICA [23097030],-74.401167,6.485139,110.734,MAGDALENA,Rió San Bartolo y otros directos al Magdalena Medio,Medio Magdalena,PUERTO BERRIO,PUERTO BERRIO,Hidrologica Automatica Nivel - Precipitacion,104.579,74423.3452345,ANTIOQUIA,-Y,5.721,5.221,4.721,1.71,6.09,Amarilla,nan,5.11,3.48
23127020,PTO ARAUJO AUTOMATICA [23127020],-74.086063,6.524903,92.0,CARARE,Río Carare (Minero),Medio Magdalena,CIMITARRA,CIMITARRA,Hidrologica Automatica Nivel - Precipitacion,93.46,5381.82195635,SANTANDER,R0,6.5,5.5,5.0,0.08,8.05,nan,nan,nan,nan
23197690,PALOGORDO AUTOMATICA [23197690],-73.130556,6.969167,690.0,RIO DE ORO,Río Lebrija y otros directos al Magdalena,Medio Magdalena,GIRON,GIRON,Hidrologica Automatica Nivel - Precipitacion,0.0,224.513536173,SANTANDER,R0,nan,nan,nan,0.09,4.74,nan,nan,0.79,0.42
23217080,GAMARRA AUTOMATICA [23217080],-73.753389,8.284286,40.0,MAGDALENA,Quebrada El Carmen y Otros Directos al Magdalena Medio,Medio Magdalena,nan,GAMARRA,Hidrologica Automatica Nivel - Precipitacion,0.0,nan,CESAR,R0,nan,nan,nan,1.74,6.31,nan,nan,nan,3.97
25017010,MONTELIBANO AUTOMATICA [25017010],-75.417333,7.987972,39.97,SAN JORGE,Alto San Jorge,Bajo Magdalena- Cauca -San Jorge,MONTELIBANO,MONTELIBANO,Hidrologica Automatica Nivel - Precipitacion,33.01,3921.79671163,CORDOBA,R0,5.09,4.59,4.09,0.1,6.45,nan,nan,nan,nan
25027020,EL BANCO AUTOMATICA[25027020],-73.969444,8.992528,29.49,MAGDALENA,Bajo Cesar,Cesar,EL BANCO,EL BANCO,Hidrologica Automatica Nivel - Precipitacion,19.6,160966.584232,MAGDALENA,R0,9.05,8.85,8.65,2.41,9.57,nan,nan,6.23,6.07
25027200,LAS VARAS AUTOM  [25027200],-74.563167,8.387417,28.929,CAUCA,Bajo San Jorge - La Mojana,Bajo Magdalena- Cauca -San Jorge,SAN JACINTO DEL CAUCA,SAN JACINTO DEL CAUCA,Hidrologica Automatica Nivel - Precipitacion,22.16,58121.9510744,BOLIVAR,R0,5.8,5.68,5.56,0.37,6.81,nan,nan,nan,2.37
25027450,PLATO MAGDALENA   [25027450],-74.806714,9.788428,15.912,MAGDALENA,Directos Bajo Magdalena entre El Banco y El Plato (md),Bajo Magdalena,PLATO,PLATO,Hidrologica Automatica Nivel - Precipitacion,0.24,nan,MAGDALENA,R0,14.8,14.65,14.5,4.14,15.08,nan,nan,9.53,nan
26127010,EL ALAMBRADO   [26127010],-75.875333,4.409306,1061.0,LA VIEJA,Río La Vieja,Cauca,CAICEDONIA,CAICEDONIA,Hidrologica Automatica Nivel - Precipitacion,151.0,1655.12638721,VALLE DEL CAUCA,R0,4.8,4.5,4.2,0.04,5.12,nan,nan,nan,nan
26137220,EL RETEN AUTOM  [26137220],-75.603111,4.746667,1753.0,OTUN,Río Otún y otros directos al Cauca,Cauca,SANTA ROSA DE CABAL,SANTA ROSA DE CABAL,Hidrologica Automatica Nivel - Precipitacion,188.0,234.598480139,RISARALDA,R0,4.0,3.6,3.2,1.9,4.08,nan,nan,nan,nan
26177030,LA VIRGINIA AUTOM  [26177030],-75.88275,4.892333,900.442,CAUCA,Río Otún y otros directos al Cauca,Cauca,LA VIRGINIA,LA VIRGINIA,Hidrologica Automatica Nivel - Precipitacion,891.61,25453.5453037,RISARALDA,R0,5.69,5.19,4.69,0.1,7.3,nan,nan,3.31,1.6
26207080,BOLOMBOLO AUTOM   [26207080],-75.841361,5.965972,532.698,CAUCA,Directos Río Cauca  entre Río San Juan y  Pto Valdivia (md),Cauca,VENECIA,VENECIA,Hidrologica Automatica Nivel - Precipitacion,525.24,30992.6666843,ANTIOQUIA,R0,5.96,5.46,4.96,0.8,7.64,nan,nan,nan,3.42
26237040,PTO VALDIVIA AUTOM  [26237040],-75.396833,7.286917,130.74,CAUCA,Directos Río Cauca  entre Río San Juan y  Pto Valdivia (md),Cauca,VALDIVIA,VALDIVIA,Hidrologica Automatica Nivel - Precipitacion,121.68,37389.1112827,ANTIOQUIA,R0,nan,nan,nan,0.15,8.36,nan,nan,3.65,2.76
26247020,LA COQUERA AUTOM  [26247020],-75.193694,7.962139,52.55,CAUCA,Bajo San Jorge - La Mojana,Bajo Magdalena- Cauca -San Jorge,CAUCASIA,CAUCASIA,Hidrologica Automatica Nivel - Precipitacion,46.19,40987.4541251,ANTIOQUIA,R0,4.34,4.04,3.74,0.07,5.56,nan,nan,nan,2.28
26247050,LAS CAMELIAS AUTOM  [26247050],-75.419528,7.581889,97.503,TARAZA,Río Taraza - Río Man,Cauca,TARAZA,TARAZA,Hidrologica Automatica Nivel - Precipitacion,92.019,907.248245266,ANTIOQUIA,R0,5.181,4.681,4.181,0.15,6.86,nan,nan,nan,nan
27037010,LA ESPERANZA NECHI  [27037010],-74.785583,8.030056,37.364,NECHI,Bajo Nechí (md),Nechí,NECHI,NECHI,Hidrologica Automatica Nivel - Precipitacion,31.16,14362.7982131,ANTIOQUIA,R0,4.89,4.74,4.59,0.43,5.83,nan,nan,3.44,2.56
27037030,SAN JUAN NECHI AUTOM [27037030],-74.920833,7.475,180.0,NECHI,Directos al Bajo Nechí (mi),Nechí,ZARAGOZA,ZARAGOZA,Hidrologica Automatica Nivel - Precipitacion,0.0,8252.74135146,ANTIOQUIA,R0,8.0,7.5,6.5,0.6,8.22,nan,nan,nan,nan
29037003,PALOTAL    AUT (29037003)[29037003],-75.491906,10.093908,5.0,CIENAGA DE APLOTAL,Canal del Dique margen izquierda,Bajo Magdalena,ARJONA,ARJONA,Hidrologica Automatica Nivel - Precipitacion,nan,nan,BOLIVAR,R0,nan,nan,nan,nan,nan,nan,nan,nan,nan
29047000,TEBSA BQUILLA [29047000],-74.759889,10.936639,6.0,RIO MAGDALENA,Directos al Bajo Magdalena entre Calamar y desembocadura al mar Caribe (mi),Bajo Magdalena,nan,SOLEDAD,Hidrologica Automatica Nivel - Precipitacion,0.0,nan,ATLANTICO,R0,4.0,nan,nan,0.3,1.42,nan,nan,nan,nan
29047070,SAN PEDRITO AUTOMATICA[29047070],-74.907861,10.268222,8.0,MAGDALENA,Canal del Dique margen derecho,Bajo Magdalena,SUAN,SUAN,Limnimetrica,0.0,nan,ATLANTICO,R0,8.5,8.0,7.5,1.37,9.25,nan,nan,5.05,5.15
29057001,SAN CRISTOBAL [29057001],-75.061444,10.392278,5.0,nan,Canal del Dique margen izquierda,Bajo Magdalena,SAN CRISTOBAL,SAN CRISTOBAL,Hidrologica Automatica Nivel - Precipitacion,nan,nan,BOLIVAR,R0,nan,nan,nan,nan,nan,nan,nan,nan,nan
29057002,LEQUERICA AUTOM   AUT  [29057002],-75.518861,10.237667,2.0,nan,Canal del Dique margen izquierda,Bajo Magdalena,CARTAGENA DE INDIAS,CARTAGENA DE INDIAS,Hidrologica Automatica Nivel - Precipitacion,nan,nan,BOLIVAR,R0,nan,nan,nan,nan,nan,nan,nan,nan,nan
29057003,MACHADO  AUT  [29057003],-74.968972,10.234722,7.0,CIENAGA DE MACHADO,Canal del Dique margen izquierda,Bajo Magdalena,ARROYOHONDO,ARROYOHONDO,Hidrologica Automatica Nivel - Precipitacion,nan,nan,BOLIVAR,R0,nan,nan,nan,nan,nan,nan,nan,nan,nan
29057004,SANTA HELENA AUT [29057004],-75.40077778,10.06311111,2.0,nan,Canal del Dique margen izquierda,Bajo Magdalena,ARJONA,ARJONA,Hidrologica Automatica Nivel - Precipitacion,nan,nan,BOLIVAR,R0,nan,nan,nan,nan,nan,nan,nan,nan,nan
32067030,PTO ANGOSTURAS [32067030],-73.922472,3.792667,745.0,ARIARI,Río Ariari,Guaviare,CUBARRAL,CUBARRAL,Hidrologica Automatica Nivel - Precipitacion,0.0,763.275148732,META,R0,6.2,5.3,4.5,1.13,7.8,nan,nan,nan,nan
35017020,PTE LLERAS AUTOMATICA [35017020],-72.936383,4.103019,177.417,META,Directos Rio Metica entre ríos Guayuriba y Yucao,Meta,PUERTO LOPEZ,PUERTO LOPEZ,Hidrologica Automatica Nivel - Precipitacion,167.082,8013.70837515,META,R0,6.318,5.818,5.318,1.4,7.09,nan,nan,nan,nan
35037100,PTE ABADIA AUTOMATICA [35037100],-73.635361,4.235333,523.0,GUATIQUIA,Río Guatiquía,Meta,VILLAVICENCIO,VILLAVICENCIO,Hidrologica Automatica Nivel - Precipitacion,521.1762,nan,META,R0,nan,nan,nan,0.01,7.35,nan,nan,nan,nan
37057020,ALCARAVAN  AUT [37057020],-71.416389,7.035,162.0,ARAUCA,Rio Banadia y otros Directos al Río Arauca,Arauca,ARAUQUITA,ARAUQUITA,Hidrologica Automatica Nivel - Precipitacion,0.0,nan,ARAUCA,-R,8.0,7.264028,6.528056,1.5,9.75,nan,Roja,nan,8.31
44037040,EL ROSARIO AUTOMATICA [44037040],-75.666611,1.72525,791.86,CARANO,Río Orteguaza,Caquetá,FLORENCIA,FLORENCIA,Hidrologica Automatica Nivel - Precipitacion,786.46,55.5238376594,CAQUETA,R0,3.0,2.75,2.5,0.02,4.5,nan,nan,nan,nan
51027060,SAN JUAN MIRA AUTOM [51027060],-78.670278,1.423889,100.0,MIRA,Río Mira,Mira,SAN JUAN(RIO MIRA),SAN ANDRES DE TUMACO,Hidrologica Automatica Nivel - Precipitacion,0.0,2731.81964751,NARINO,R0,6.8,5.85,5.3,1.0,9.96,nan,nan,2.89,1.75
52077010,PTE PUSMEO AUTOM  [52077010],-77.478917,1.624056,391.0,PATIA,Río Patia Medio,Patía,PISANDA,CUMBITARA,Hidrologica Automatica Nivel - Precipitacion,360.7828,12116.1191743,NARINO,R0,9.2172,8.7172,8.2172,nan,9.15,nan,nan,nan,2.46
54017040,TADO AUTOM   [54017040],-76.562389,5.265,100.0,SAN JUAN,Río San Juan Alto,San Juán,TADO,TADO,Hidrologica Automatica Nivel - Precipitacion,95.0,1767.50253421,CHOCO,R0,6.0,5.5,5.0,nan,6.88,nan,nan,nan,1.4
35167000,CORPOBOYACA - SANTA INES [35167000],-72.88411111,5.545,3041.0,LAGO DE TOTA,Lago de Tota,Meta,AQUITANIA,AQUITANIA,Hidrologica Automatica Nivel - Precipitacion,0.0,nan,BOYACA,R0,nan,nan,nan,nan,nan,nan,nan,nan,nan
35167010,HATO LAGUNA [35167010],-72.90083333,5.584444444,3020.0,QDA. LAS CINTAS,Lago de Tota,Meta,AQUITANIA,AQUITANIA,Hidrologica Automatica Nivel - Precipitacion,0.0,nan,BOYACA,R0,nan,nan,nan,nan,nan,nan,nan,nan,nan
35167020,CRIADERO [35167020],-72.88047222,5.557,3025.0,QDA. LOS POZOS,Lago de Tota,Meta,AQUITANIA,AQUITANIA,Hidrologica Automatica Nivel - Precipitacion,0.0,nan,BOYACA,R0,nan,nan,nan,nan,nan,nan,nan,0.47,nan
25027750,SAN MARCOS AUTOM [25027750],-75.13138889,8.654722222,22.0,CGA. SAN MARCOS,Bajo San Jorge - La Mojana,Bajo Magdalena- Cauca -San Jorge,SAN MARCOS,SAN MARCOS,Hidrologica Automatica Nivel - Precipitacion,nan,nan,SUCRE,R0,nan,nan,nan,nan,nan,nan,nan,nan,nan
25027760,BEIRUT AUTOM [25027760],-75.13388889,8.302222222,26.0,CGA. DE AYAPEL,Bajo San Jorge - La Mojana,Bajo Magdalena- Cauca -San Jorge,AYAPEL,AYAPEL,Hidrologica Automatica Nivel - Precipitacion,nan,nan,nan,R0,nan,nan,nan,nan,nan,nan,nan,5.77,nan
5204700100,PUENTE LOS DOLORES - AUT,-77.26569444,1.19980556,2697.0,Pasto,Rio Juananbu,Patia,PASTO,PASTO,Limnigrafica,nan,nan,NARIÑO,R0,nan,nan,nan,nan,nan,nan,nan,nan,0.56
2603700157,REMOLINO - AUT   [2603700157],-76.83147222,2.51466667,1606.0,Sucio,Rio Salado y otros directos Cauca,Cauca,EL TAMBO (CAUCA),EL TAMBO (CAUCA),Limnigrafica,nan,nan,CAUCA,R0,nan,nan,nan,nan,nan,nan,nan,nan,nan
2119700147,SAN MIGUEL - AUT   [2119700147],-74.74286944,4.24271111,268.0,Sumapaz,Rio Sumapaz,Alto Magdalena,RICAURTE (CUNDINAMARCA),RICAURTE (CUNDINAMARCA),Limnigrafica,nan,nan,CUNDINAMARCA,R0,nan,nan,nan,nan,nan,nan,nan,nan,nan
2602700148,CAUCA ALTO - AUT   [2602700148],-76.75291667,2.69436111,1258.0,Cauca,Rio Palace,Cauca,CAJIBIO,CAJIBIO,Limnigrafica,nan,nan,CAUCA,R0,nan,nan,nan,nan,nan,nan,nan,nan,nan
2629700151,LA VORAGINE - AUT   [2629700151],-76.58933333,3.34630556,1239.0,Pance,Rios Claro y Jamundi,Cauca,CALI,CALI,Limnigrafica,nan,nan,VALLE DEL CAUCA,R0,nan,nan,nan,nan,nan,nan,nan,nan,nan
1605700152,PALO GRANDE - AUT   [1605700152],-73.3045,8.29076111,1087.0,Algodonal,Rio Algodonal (Alto Catatumbo),Catatumbo,OCAÑA,OCAÑA,Limnigrafica,nan,nan,NORTE DE SANTANDER,R0,nan,nan,nan,nan,nan,nan,nan,nan,nan
2619700161,SALGAR - AUT   [2619700161],-75.90825,5.88097222,642.0,San Juan,Rio San Juan,Cauca,PUEBLORRICO,PUEBLORRICO,Limnigrafica,nan,nan,ANTIOQUIA,R0,nan,nan,nan,nan,nan,nan,nan,nan,nan
2120700146,UNIVERSIDAD DE LA SABANA - AUT   [2120700146],-74.04,4.85475,2553.0,Bogota,Rio Bogota,Alto Magdalena,CHIA,CHIA,Limnigrafica,nan,nan,CUNDINAMARCA,R0,nan,nan,nan,nan,nan,nan,nan,nan,nan
2405700149,EL JUNCAL - AUT   [2405700149],-73.19863889,6.79377778,329.0,Sogamoso,Rio Sogamoso,Sogamoso,LOS SANTOS,LOS SANTOS,Limnigrafica,nan,nan,SANTANDER,R0,nan,nan,nan,nan,nan,nan,nan,nan,nan
2633700150,GUAYABAL - AUT   [2633700150],-76.34702222,3.89456944,931.0,Cauca,Rios Guadalajara y San Pedro,Cauca,BUGA,BUGA,Limnigrafica,nan,nan,VALLE DEL CAUCA,R0,nan,nan,nan,nan,nan,nan,nan,nan,nan
2502700153,PLANTA ECOPETROL - AUT   [2502700153],-74.73008889,9.1751,14.0,Magdalena,Bajo San Jorge - La Mojana,Bajo Magdalena- Cauca -San Jorge,MAGANGUE,MAGANGUE,Limnigrafica,nan,nan,BOLIVAR,R0,nan,nan,nan,nan,nan,nan,nan,nan,nan
2311700155,PUERTO BOYACA - AUT   [2311700155],-74.59496944,5.98025833,147.0,Magdalena,Directos al Magdalena Medio entre rios Negro,Medio Magdalena,PUERTO BOYACA,PUERTO BOYACA,Limnigrafica,nan,nan,BOYACA,R0,nan,nan,nan,nan,nan,nan,nan,nan,nan
2613700156,PUERTO CALDAS - AUT   [2613700156],-75.91796111,4.81411389,896.0,Cauca,Rio Otun y otros directos al Cauca,Cauca,PEREIRA,PEREIRA,Limnigrafica,nan,nan,RISARALDA,R0,nan,nan,nan,nan,nan,nan,nan,nan,nan
2611700158,RIO FRIO - AUT   [2611700158],-76.29008056,4.15219444,940.0,Frio,Rio Frio,Cauca,RIOFRIO,RIOFRIO,Limnigrafica,nan,nan,VALLE DEL CAUCA,R0,nan,nan,nan,nan,nan,nan,nan,nan,nan
1501700160,RIO MANZANARES ALERTAS - AUT   [1501700160],-74.09690556,11.18708056,453.0,Manzanares,Rio  Piedras - Rio Manzanares,Caribe - Guajira,SANTA MARTA,SANTA MARTA,Limnigrafica,nan,nan,MAGDALENA,R0,nan,nan,nan,nan,nan,nan,nan,nan,nan
2120700162,SAN JOAQUIN - AUT   [2120700162],-74.52002778,4.63825,614.0,Apulo,Rio Bogota,Alto Magdalena,LA MESA,LA MESA,Limnigrafica,nan,nan,CUNDINAMARCA,R0,nan,nan,nan,nan,nan,nan,nan,nan,nan
2403700148,PUENTE LA CASIANO - AUT [2403700148],-72.47977778,6.56738889,2300.0,Bajira,Rio Chicamocha,Sogamoso,CHISCAS,CHISCAS,Limnigrafica,nan,nan,BOYACA,R0,nan,nan,nan,nan,nan,nan,nan,0.78,nan
2403700149,PUENTE LA RAMADA - AUT [2403700149],-72.49413889,6.55622222,2300.0,Bajira,Rio Chicamocha,Sogamoso,CHISCAS,CHISCAS,Limnigrafica,nan,nan,BOYACA,R0,nan,nan,nan,nan,nan,nan,nan,1.1,nan
21207703,EL PORTILLO [21207703],-74.611889,4.457806,2552.0,RIO BAJO BOGOTA,Río Bogotá,Alto Magdalena,GIRARDOT,GIRARDOT,Limnigrafica,0.0,nan,CUNDINAMARCA,R0,nan,nan,nan,nan,nan,nan,nan,nan,nan
21207704,EL TRIUNFO [21207704],-73.593056,5.237583,2756.0,RIO ALTO BOGOTA,Río Bogotá,Alto Magdalena,VILLAPINZON,VILLAPINZON,Limnigrafica,0.0,nan,CUNDINAMARCA,R0,nan,nan,nan,nan,nan,nan,nan,nan,nan
21207705,EL VERGEL- 21207705[21207705],-73.957444,4.867694,3030.0,RIO TEUSACA,Río Bogotá,Alto Magdalena,SOPO,SOPO,Limnigrafica,0.0,nan,CUNDINAMARCA,R0,nan,nan,nan,nan,nan,nan,nan,nan,nan
21207706,NEUSA - 21207706[21207706],-73.970778,5.142278,2782.0,RIO NEUSA,Río Bogotá,Alto Magdalena,COGUA,COGUA,Limnigrafica,0.0,nan,CUNDINAMARCA,R0,nan,nan,nan,nan,nan,nan,nan,nan,nan
21207707,PUENTE CALAMAR - [21207707],-74.071667,4.977667,2567.0,RIO FRIO,Río Bogotá,Alto Magdalena,TABIO,TABIO,Limnigrafica,0.0,nan,CUNDINAMARCA,R0,nan,nan,nan,nan,nan,nan,nan,nan,nan
21207709,REFISAL-21207709[21207709],-73.991406,4.976014,2652.0,CERROS ORIENTALES,Río Bogotá,Alto Magdalena,ZIPAQUIRA,ZIPAQUIRA,Limnigrafica,0.0,nan,CUNDINAMARCA,R0,nan,nan,nan,nan,nan,nan,nan,nan,nan
21207711,SIMAYA-21207711[21207711],-73.948911,4.723931,3307.0,RIO TEUSACA,Río Bogotá,Alto Magdalena,LA CALERA,LA CALERA,Limnigrafica,0.0,nan,CUNDINAMARCA,R0,nan,nan,nan,nan,nan,nan,nan,nan,nan
21207712,SISGA -21207712[21207712],-73.732806,5.087167,2880.0,EMBALSE SISGA,Río Bogotá,Alto Magdalena,CHOCONTA,CHOCONTA,Limnigrafica,0.0,nan,CUNDINAMARCA,R0,nan,nan,nan,nan,nan,nan,nan,nan,nan
21207713,USME-21207713[21207713],-74.108704,4.514251,2568.0,RIO TUNJUELO,Río Bogotá,Alto Magdalena,BOGOTA D.C.,BOGOTA D.C.,Limnigrafica,0.0,nan,BOGOTA D.C.,R0,nan,nan,nan,nan,nan,nan,nan,nan,nan
21207716,PUENTE VARGAS - [21207716],-74.009722,4.923806,2828.0,CERROS ORIENTALES,Río Bogotá,Alto Magdalena,CAJICA,CAJICA,Limnigrafica,0.0,nan,CUNDINAMARCA,R0,nan,nan,nan,nan,nan,nan,nan,nan,nan
21207850,MOLINO EL [21207850],-73.916667,5.05,2580.0,BARANDILLAS,Río Bogotá,Alto Magdalena,NEMOCON,NEMOCON,Limnimetrica,0.0,nan,CUNDINAMARCA,R0,nan,nan,nan,nan,nan,nan,nan,nan,nan
21237060,CORRALITOS PULI [21237060],-74.65,4.633333,317.0,RIOSECO,Río Seco y otros Directos al Magdalena,Alto Magdalena,PULI,PULI,Limnigrafica,0.0,nan,CUNDINAMARCA,R0,nan,nan,nan,nan,nan,nan,nan,nan,nan
23067210,PTE GRANADA AUTOMATICA [23067210],-74.55,5.066667,1500.0,SAN FRANCISCO,Río Negro,Medio Magdalena,GUADUAS,GUADUAS,Limnigrafica,0.0,nan,CUNDINAMARCA,R0,nan,nan,nan,nan,nan,nan,nan,nan,nan
23067701,EL PARAISO-23067701[23067701],-74.280639,5.22875,2559.0,RIO ALTO NEGRO,Río Negro,Medio Magdalena,VILLAGOMEZ,VILLAGOMEZ,Limnigrafica,0.0,nan,CUNDINAMARCA,R0,nan,nan,nan,nan,nan,nan,nan,nan,nan
23067702,PASO DEL REJO -23067702[23067702],-74.410194,5.457944,2559.0,RIO GUAGUAQUI,Río Negro,Medio Magdalena,NIMAIMA,NIMAIMA,Limnigrafica,0.0,nan,CUNDINAMARCA,R0,nan,nan,nan,nan,nan,nan,nan,nan,nan
23067703,QUEBRADA NEGRA [23067703],-74.507639,5.127667,1498.0,QUEBRADA NEGRA,Río Negro,Medio Magdalena,?TICA,?TICA,Limnigrafica,0.0,nan,CUNDINAMARCA,R0,nan,nan,nan,nan,nan,nan,nan,nan,nan
23067704,RIO TOBIA [23067704],-74.449472,5.07425,708.0,RIO TOBIA,Río Negro,Medio Magdalena,NIMAIMA,NIMAIMA,Limnigrafica,0.0,nan,CUNDINAMARCA,R0,nan,nan,nan,nan,nan,nan,nan,nan,nan
24017220,SAN AGUSTIN [24017220],-73.9,5.45,2919.0,NUTRIAS,Río Carare (Minero),Medio Magdalena,LENGUAZAQUE,LENGUAZAQUE,Limnimetrica,0.0,nan,CUNDINAMARCA,R0,nan,nan,nan,nan,nan,nan,nan,nan,nan
24017701,EL PINO-24017701[24017701],-73.837444,5.269006,2552.0,RIO SUTA,Río Suárez,Sogamoso,UBATE,UBATE,Limnigrafica,0.0,nan,CUNDINAMARCA,R0,nan,nan,nan,nan,nan,nan,nan,nan,nan
24017702,EL BOQUERÓN - AUTOM [24017702],-73.804667,5.197944,2870.0,RIO LENGUAZAQUE,Río Bogotá,Alto Magdalena,LENGUAZAQUE,LENGUAZAQUE,Limnigrafica,0.0,nan,CUNDINAMARCA,R0,nan,nan,nan,nan,nan,nan,nan,nan,nan
29037001,TAMBO EL AUTOM  AUT [29037001],-75.283056,10.184389,6.0,CIENAGA DEL TAMBO,Canal del Dique margen derecho,Bajo Magdalena,ARJONA,ARJONA,Hidrologica Automatica Nivel,nan,nan,BOLIVAR,R0,nan,nan,nan,nan,nan,nan,nan,nan,nan
29057006,MARIA LA BAJA AUTOM.  [29057006],-75.3,9.983333,10.0,AY PIQUININE,Canal del Dique margen izquierda,Bajo Magdalena,MARIA LA BAJA,MARIA LA BAJA,Hidrologica Automatica Nivel,nan,nan,BOLIVAR,R0,nan,nan,nan,nan,nan,nan,nan,nan,nan
29037007,MATUYA  - AUT  [29037007],-75.25392778,10.18398056,6.0,CIÉNAGA DE MATUY,Canal del Dique margen izquierda,Bajo Magdalena,MAHATES,MAHATES,Hidrologica Automatica Nivel,nan,nan,BOLIVAR,R0,nan,nan,nan,nan,nan,nan,nan,nan,nan
52017001,PUERTO NUEVO - PATIA [52017001],-77.246389,1.908889,525.0,PATIA,Río Patia Alto,Patía,LEIVA,LEIVA,Hidrologica Automatica Nivel - Precipitacion,0.0,nan,NARINO,R0,nan,nan,nan,nan,3.85,nan,nan,nan,nan
11159010,CAPURGANA AUTOM   [11159010],-77.325028,8.591083,2.0,MAR CARIBE,Río Tolo y otros Directos al Caribe,Atrato - Darién,ACANDI,ACANDI,Meteorologica Marina,0.0,nan,CHOCO,R0,nan,nan,nan,nan,nan,nan,nan,nan,nan
15067200,EL SILENCIO AUTOMATICA [15067200],-72.915406,10.916872,255.0,RANCHERIA,Río Ranchería,Caribe - Guajira,nan,FONSECA,Limnigrafica,0.0,nan,LA GUAJIRA,R0,nan,nan,nan,0.44,2.84,nan,nan,nan,nan
2120700037,CASAS FISCALES ESCUELA DE ARTILLERiA - AUT  [2120700037],-74.12517222,4.55643889,2567.0,Chingaza,Rio Bogota,Alto Magdalena,BOGOTA D.C,BOGOTA D.C,Limnigrafica,nan,nan,BOGOTA,R0,nan,nan,nan,nan,nan,nan,nan,nan,nan
2120700038,SAN FRANCISCO - AUT  [2120700038],-74.14884444,4.56233889,2577.0,Chingaza,Rio Bogota,Alto Magdalena,BOGOTA D.C,BOGOTA D.C,Limnigrafica,nan,nan,BOGOTA,R0,nan,nan,nan,nan,nan,nan,nan,nan,nan
25027770,MARRALU - AUT [25027770],-75.23925,8.305916667,23.0,SAN JORGE,Bajo San Jorge - La Mojana,Bajo Magdalena- Cauca -San Jorge,AYAPEL,AYAPEL,Hidrologica Automatica Nivel - Precipitacion,nan,nan,nan,R0,nan,nan,nan,nan,nan,nan,nan,nan,nan
2801700088,CHEMESQUEMENA[2801700088],-73.40216666,10.71211111,nan,nan,Alto Cesar,Cesar,VALLEDUPAR,VALLEDUPAR,Hidrologica Automatica Nivel - Precipitacion,nan,nan,CESAR,R0,nan,nan,nan,nan,nan,nan,nan,nan,nan
13057010,NUEVA COLOMBIA   [13057010],-75.977831,8.501278,25.499,SINU,Medio Sinú,Sinú,MONTERIA,MONTERIA,Hidrologica Automatica Nivel - Precipitacion,19.779,nan,CORDOBA,R0,6.321,5.821,5.321,0.69,5.92,nan,nan,nan,nan
21197030,PLAYA LA [21197030],-74.500722,4.19225,750.0,SUMAPAZ,Río Sumapaz,Alto Magdalena,PANDI,PANDI,Limnigrafica,0.0,1166.19759183,CUNDINAMARCA,R0,4.3,3.849174,3.398348,0.41,7.0,nan,nan,nan,2.75
21257070,PTE SAN FRANCISCO  [21257070],-74.890722,5.01925,260.0,SABANDIJA,Río Lagunilla y Otros Directos al Magdalena,Alto Magdalena,GUAYABAL,ARMERO,Limnimetrica,0.0,341.902560224,TOLIMA,R0,nan,nan,nan,0.03,5.84,nan,nan,nan,0.45
23157030,BARRANCABERMEJA [23157030],-73.876,7.060194,75.48,MAGDALENA,Río Opón,Medio Magdalena,BARRANCABERMEJA,BARRANCABERMEJA,Hidrologica Automatica Nivel - Precipitacion,70.487,nan,SANTANDER,R0,4.613,4.113,3.613,0.25,5.7,nan,nan,nan,2.87
23207040,SAN PABLO RIO MAGDALENA [23207040],-73.918556,7.480333,62.374,MAGDALENA,Directos al Magdalena (Brazo Morales),Medio Magdalena,SAN PABLO,SAN PABLO,Hidrologica Automatica Nivel - Precipitacion,54.839,nan,BOLIVAR,R0,7.261,6.761,6.261,2.38,8.0,nan,nan,nan,5.3
35197070,PTE LAS CANAS  [35197070],-72.802861,5.586583,3135.0,CUSIANA,Río Cusiana,Meta,AQUITANIA,AQUITANIA,Limnimetrica,0.0,nan,BOYACA,R0,nan,nan,nan,0.0,2.1,nan,nan,0.6,nan
12017010,CHIGORODO    [12017010],-76.684333,7.672722,50.0,CHIGORODO,Río León,Caribe - Litoral,CHIGORODO,CHIGORODO,Limnimetrica,0.0,195.35766748,ANTIOQUIA,R0,nan,nan,nan,0.0,6.0,nan,nan,nan,1.36
12037010,CANDELARIA LA [12037010],-76.445833,8.659722,5.0,SAN JUAN D URABA,Río San Juan,Caribe - Litoral,ARBOLETES,ARBOLETES,Limnigrafica,0.0,1045.97119998,ANTIOQUIA,R0,nan,nan,nan,0.05,9.97,nan,nan,nan,nan
12037030,CARMELO EL   [12037030],-76.383694,8.617361,20.0,SAN JUAN D URABA,Río San Juan,Caribe - Litoral,ARBOLETES,ARBOLETES,Limnigrafica,0.0,840.834762001,ANTIOQUIA,R0,nan,nan,nan,0.0,4.95,nan,nan,nan,nan
13097010,TOLUVIEJO    [13097010],-75.439083,9.436917,60.0,AY PECHELIN,Directos Caribe Golfo de Morrosquillo,Caribe - Litoral,TOLU VIEJO,TOLU VIEJO,Limnimetrica,0.0,494.30354635,SUCRE,R0,nan,nan,nan,0.0,7.2,nan,nan,nan,nan
15017020,REVUELTA LA [15017020],-73.941556,11.277639,50.0,PIEDRAS,Río  Piedras - Río Manzanares,Caribe - Guajira,DISTRITO TURISTICOCULTURAL E HISTORICO DE STA MARTA,SANTA MARTA,Limnimetrica,0.0,141.841074817,MAGDALENA,R0,5.0,nan,nan,0.01,4.95,nan,nan,nan,1.06
15017040,GUACHACA    [15017040],-73.839167,11.2475,40.0,GUACHACA,Rio Guachaca - Mendiguaca y Buritaca,Caribe - Guajira,DISTRITO TURISTICOCULTURAL E HISTORICO DE STA MARTA,SANTA MARTA,Limnigrafica,0.81,246.302097388,MAGDALENA,R0,5.49,4.99,4.49,0.3,6.76,nan,nan,nan,nan
15017080,BURITACA [15017080],-73.7625,11.249444,28.0,BURITACA,Rio Guachaca - Mendiguaca y Buritaca,Caribe - Guajira,DISTRITO TURISTICOCULTURAL E HISTORICO DE STA MARTA,SANTA MARTA,Limnimetrica,0.0,nan,MAGDALENA,R0,nan,nan,nan,1.0,3.74,nan,nan,nan,2.1
15027010,PTE CARRETERA [15027010],-73.685278,11.244167,40.0,DON DIEGO,Río Ancho y Otros Directos al caribe,Caribe - Guajira,DISTRITO TURISTICOCULTURAL E HISTORICO DE STA MARTA,SANTA MARTA,Limnigrafica,0.0,539.304416237,MAGDALENA,R0,nan,nan,nan,0.25,5.0,nan,nan,nan,nan
15037010,ANCHO    [15037010],-73.451278,11.204833,50.0,ANCHO,Río Ancho y Otros Directos al caribe,Caribe - Guajira,DIBULLA,DIBULLA,Limnigrafica,76.31,515.118709714,LA GUAJIRA,R0,nan,nan,nan,0.3,7.54,nan,nan,nan,nan
15037020,PTE CARRETERA [15037020],-73.568611,11.244556,30.0,PALOMINO,Río Ancho y Otros Directos al caribe,Caribe - Guajira,DIBULLA,DIBULLA,Limnigrafica,70.4398,691.468487352,LA GUAJIRA,R0,nan,nan,nan,0.22,6.0,nan,nan,nan,1.72
15047020,PTE BOMBA [15047020],-73.163389,11.252056,14.0,TAPIAS,Río Tapias,Caribe - Guajira,RIOHACHA,RIOHACHA,Limnimetrica,11.74,781.366147582,LA GUAJIRA,R0,2.86,2.36,1.86,0.2,6.4,nan,nan,nan,1.0
15067060,ESPERANZA LA [15067060],-72.508194,11.142333,135.0,AY BRUNO,Río Ranchería,Caribe - Guajira,ALBANIA,ALBANIA,Limnimetrica,0.0,35.5139393506,LA GUAJIRA,R0,nan,nan,nan,0.01,5.0,nan,nan,nan,0.13
15067080,MAGUEYES LOS [15067080],-72.772278,10.946722,140.0,AY LA QUEBRADA,Río Ranchería,Caribe - Guajira,BARRANCAS,BARRANCAS,Limnimetrica,0.0,790.773569171,LA GUAJIRA,R0,nan,nan,nan,0.12,4.0,nan,nan,nan,nan
15067170,SAN FRANCISCO [15067170],-72.756172,10.990603,450.0,RANCHERIA,Río Ranchería,Caribe - Guajira,BARRANCAS,BARRANCAS,Limnigrafica,0.0,nan,LA GUAJIRA,R0,4.0,3.54,3.08,0.27,4.8,nan,nan,nan,0.64
15067180,AREMASAHIN AUTOMATICA [15067180],-72.715167,11.480778,40.0,RANCHERIA,Río Ranchería,Caribe - Guajira,RIOHACHA,RIOHACHA,Limnigrafica,16.84,nan,LA GUAJIRA,R0,6.16,5.66,5.16,0.08,5.51,nan,nan,nan,nan
16027010,POMARROSOS LOS [16027010],-72.820833,7.778333,850.0,SALAZAR,Río Zulia,Catatumbo,SALAZAR,SALAZAR,Limnigrafica,0.0,101.237485199,NORTE DE SANTANDER,R0,nan,nan,nan,0.0,4.02,nan,nan,nan,nan
16037020,CAMPO DOS [16037020],-72.631111,8.488056,50.0,SARDINATA,Río Nuevo Presidente - Tres Bocas (Sardinata - Tibú),Catatumbo,TIBU,TIBU,Limnigrafica,0.0,1887.72649762,NORTE DE SANTANDER,R0,nan,nan,nan,0.78,6.0,nan,nan,nan,2.9
21017040,SALADO BLANCO [21017040],-76.012028,1.988111,1070.0,MAGDALENA,Río Timaná y otros directos al Magdalena,Alto Magdalena,ORITOGUAZ,ELIAS,Limnigrafica,1059.41,3110.5924555,HUILA,R0,nan,nan,nan,0.44,6.0,nan,nan,nan,1.28
21017050,PITALITO 2 AUTOMATICA [21017050],-76.052444,1.848833,1250.0,GUARAPAS,Alto Magdalena,Alto Magdalena,PITALITO,PITALITO,Limnigrafica,1244.12,268.708163877,HUILA,R0,nan,nan,nan,0.5,6.0,nan,nan,nan,2.15
21127020,SOCORRO EL [21127020],-75.521056,2.95425,866.0,BACHE,Río Baché,Alto Magdalena,EL SOCORRO,SANTA MARIA,Limnimetrica,858.46,300.825072627,HUILA,R0,nan,nan,nan,0.66,3.8,nan,nan,nan,1.26
21167050,PTE CUNDAY   [21167050],-74.688278,4.059333,470.0,PRADO,Río Prado,Alto Magdalena,CUNDAY,CUNDAY,Limnimetrica,0.0,149.054918721,TOLIMA,R0,nan,nan,nan,0.22,6.0,nan,nan,nan,0.66
21197110,SILVANIA [21197110],-74.384222,4.403833,1480.0,SUBIA,Río Sumapaz,Alto Magdalena,SILVANIA,SILVANIA,Limnigrafica,1480.0,155.632253338,CUNDINAMARCA,R0,4.5,4.0,3.5,0.21,4.48,nan,nan,nan,0.44
21197150,LIMONAR EL [21197150],-74.620556,4.232556,405.0,SUMAPAZ,Río Sumapaz,Alto Magdalena,SAN JOSE DE LA COLORADA,MELGAR,Limnigrafica,0.0,2428.00886824,TOLIMA,R0,5.0,4.39,3.78,0.26,5.4,nan,nan,nan,nan
21207960,PTE PORTILLO [21207960],-74.608528,4.454861,361.0,BOGOTA,Río Bogotá,Alto Magdalena,LA SALADA,TOCAIMA,Limnigrafica,0.0,5393.96755231,CUNDINAMARCA,R0,3.0,2.551042,2.102084,0.05,5.4,nan,nan,nan,nan
21217120,PTE CARRETERA   [21217120],-75.290417,4.3995,1220.0,COELLO,Río Coello,Alto Magdalena,IBAGUE,IBAGUE,Limnigrafica,0.0,796.854730987,TOLIMA,R0,nan,nan,nan,0.23,4.75,nan,nan,nan,1.7
23017060,PTE CARRETERA   [23017060],-74.89025,5.230611,465.0,SUCIO,Río Gualí,Medio Magdalena,SAN SEBASTIAN DE MARIQUITA,SAN SEBASTIAN DE MARIQUITA,Limnimetrica,0.0,88.7369049905,TOLIMA,R0,nan,nan,nan,0.2,4.04,nan,nan,nan,0.46
23097040,PTO INMARCO   [23097040],-74.569903,6.221164,130.32,MAGDALENA,Rió San Bartolo y otros directos al Magdalena Medio,Medio Magdalena,PUERTO NARE,PUERTO NARE,Limnigrafica,122.571,17869.1324198,ANTIOQUIA,R0,4.629,4.129,3.629,0.18,6.85,nan,nan,nan,2.0
23107040,VEGACHI    [23107040],-74.797611,6.772389,929.0,VOLCAN,Rió San Bartolo y otros directos al Magdalena Medio,Medio Magdalena,VEGACHI,VEGACHI,Limnimetrica,630.0,304.001175722,ANTIOQUIA,R0,4.0,3.5,3.0,0.7,4.9,nan,nan,nan,2.0
23127050,BARREDERO FCA [23127050],-74.064834,6.644904,90.0,CARARE,Río Carare (Minero),Medio Magdalena,PUERTO PARRA,PUERTO PARRA,Limnimetrica,85.69,6459.41281623,SANTANDER,R0,nan,nan,nan,0.02,9.9,nan,nan,nan,6.3
23147020,PTE FERROCARRIL [23147020],-73.935,6.773611,90.0,OPON,Río Opón,Medio Magdalena,SIMACOTA,SIMACOTA,Limnigrafica,0.0,1733.50087544,SANTANDER,R0,nan,nan,nan,0.3,8.58,nan,nan,nan,4.0
23167010,PEÑAS BLANCAS [23167010],-73.950833,6.954722,80.0,MAGDALENA,Río Cimitarra y otros directos al Magdalena,Medio Magdalena,CASABE,YONDO,Limnimetrica,0.0,86061.7484941,ANTIOQUIA,R0,nan,nan,nan,1.37,5.93,nan,nan,nan,3.54
23187010,PTO WILCHES [23187010],-73.905039,7.344369,66.192,MAGDALENA,Río Lebrija y otros directos al Magdalena,Medio Magdalena,PUERTO WILCHES,PUERTO WILCHES,Limnimetrica,59.135,nan,SANTANDER,R0,7.565,7.065,6.565,2.0,8.7,nan,nan,nan,4.41
23187120,BADILLO [23187120],-73.85675,7.975611,49.124,MAGDALENA,Río Lebrija y otros directos al Magdalena,Medio Magdalena,PUERTO WILCHES,PUERTO WILCHES,Limnimetrica,42.976,nan,SANTANDER,R0,6.124,5.624,5.124,0.43,5.75,nan,nan,nan,nan
23187280,SITIO NUEVO [23187280],-73.801917,7.784,58.001,MAGDALENA,Río Lebrija y otros directos al Magdalena,Medio Magdalena,PUERTO WILCHES,PUERTO WILCHES,Limnimetrica,46.58,40327.5053297,SANTANDER,R0,6.02,5.52,5.02,0.72,6.4,nan,nan,nan,4.23
23197370,SAN RAFAEL   [23197370],-73.560497,7.578623,70.0,LEBRIJA,Río Lebrija y otros directos al Magdalena,Medio Magdalena,SABANA DE TORRES,SABANA DE TORRES,Limnimetrica,70.558,4329.32424208,SANTANDER,-Y,4.23,3.634303,3.038606,0.7,4.95,nan,Amarilla,nan,3.16
23207050,NOBLEZA LA [23207050],-73.883611,8.5175,37.0,BZO MORALES,Directos al Magdalena (Brazo Morales),Medio Magdalena,RIO VIEJO,RIO VIEJO,Limnimetrica,0.0,nan,BOLIVAR,R0,nan,nan,nan,1.03,6.29,nan,nan,nan,nan
23217030,EL CONTENTO [23217030],-73.773417,8.222333,41.75,MAGDALENA,Quebrada El Carmen y Otros Directos al Magdalena Medio,Medio Magdalena,GAMARRA,GAMARRA,Limnimetrica,34.568,131666.762507,CESAR,R0,7.132,6.632,6.132,0.14,8.5,nan,nan,nan,nan
23217060,LA GLORIA[23217060][23217060],-73.801639,8.613833,36.26,MAGDALENA,Directos al Magdalena (Brazo Morales),Medio Magdalena,LA GLORIA,LA GLORIA,Limnimetrica,28.978,nan,CESAR,R0,7.922,7.422,6.922,0.45,7.35,nan,nan,nan,3.26
24017570,SAN BENITO   [24017570],-73.493299,6.118475,1350.0,SUAREZ,Río Suárez,Sogamoso,SAN BENITO,SAN BENITO,Limnigrafica,1022.889,5353.6607654,SANTANDER,R0,7.0,6.2,5.4,0.79,9.04,nan,nan,nan,2.36
24017830,SUTAMARCHAN    [24017830],-73.612083,5.61825,2083.417,SUTAMARCHAN,Río Suárez,Sogamoso,SUTAMARCHAN,SUTAMARCHAN,Limnimetrica,2078.1233,351.383754119,BOYACA,R0,4.08,3.08,2.5,0.13,5.0,nan,nan,nan,1.48
24037020,COPA LA [24037020],-73.207944,5.62475,2700.0,TUTA,Río Chicamocha,Sogamoso,TOCA,TOCA,Limnimetrica,2634.2275,nan,BOYACA,R0,nan,nan,nan,0.0,1.6,nan,nan,nan,0.82
24037040,GUICAN    [24037040],-72.422778,6.460028,2600.0,NEVADO,Río Chicamocha,Sogamoso,GUICAN,GUICAN,Limnigrafica,2573.8359,161.67521737,BOYACA,R0,nan,nan,nan,0.03,2.1,nan,nan,nan,0.63
24037070,MAGUNCIA    [24037070],-73.200278,5.740556,2534.0,SOTAQUIRA,Río Chicamocha,Sogamoso,SOTAQUIRA,SOTAQUIRA,Limnimetrica,2529.1127,139.055240671,BOYACA,R0,2.02,1.814436,1.608871,0.17,2.74,nan,nan,nan,0.52
24037130,LA REFORMA [24037130],-73.189889,5.748833,2522.95,CHICAMOCHA,Río Chicamocha,Sogamoso,SOTAQUIRA,SOTAQUIRA,Limnigrafica,2519.3374,990.654708259,BOYACA,R0,2.77,2.549015,2.32803,0.69,4.5,nan,nan,nan,1.44
24037270,CHITICUY [24037270],-73.013611,5.845444,2500.0,QDA CHITICUY,Río Chicamocha,Sogamoso,DUITAMA,DUITAMA,Limnimetrica,2578.5147,11.9569371837,BOYACA,R0,1.2,0.9,0.6,0.06,2.0,nan,nan,nan,0.18
24037320,LA SIBERIA   [24037320],-73.108028,5.768194,2490.635,CHICAMOCHA,Río Chicamocha,Sogamoso,PAIPA,PAIPA,Limnigrafica,2485.6748,nan,BOYACA,R0,5.73,5.192766,4.655531,0.3,6.6,nan,nan,nan,0.75
24037390,CAPITANEJO    [24037390],-72.692833,6.512944,1083.0,CHICAMOCHA,Río Chicamocha,Sogamoso,CAPITANEJO,CAPITANEJO,Limnimetrica,0.0,6204.53697137,SANTANDER,R0,6.0,5.667365,5.334731,0.01,8.9,nan,nan,nan,2.98
24037480,TRINIDAD LA [24037480],-73.08225,5.840028,2500.0,SURBA,Río Chicamocha,Sogamoso,DUITAMA,DUITAMA,Limnimetrica,2640.1408,42.6522853274,BOYACA,-Y,1.2592,0.7592,0.2592,0.02,2.2,nan,Amarilla,nan,0.5
24037510,PAZ DE RIO [24037510],-72.782222,6.000278,2200.0,CHICAMOCHA,Río Chicamocha,Sogamoso,PAZ DE RIO,PAZ DE RIO,Limnigrafica,2202.5202,2907.06123749,BOYACA,R0,4.9798,4.4798,3.9798,0.17,6.53,nan,nan,nan,1.4
24067020,PTE SOGAMOSO [24067020],-73.787624,7.244166,90.0,SOGAMOSO,Río Sogamoso,Sogamoso,PUERTO WILCHES,PUERTO WILCHES,Limnimetrica,79.927,nan,SANTANDER,R0,nan,nan,nan,1.9,7.6,nan,nan,nan,3.1
25027070,PTO CORDOBA   [25027070],-75.357861,8.065333,40.0,SAN JORGE,Bajo San Jorge - La Mojana,Bajo Magdalena- Cauca -San Jorge,BUENAVISTA,BUENAVISTA,Limnimetrica,28.0,nan,CORDOBA,R0,6.31,5.81,5.31,0.04,6.97,nan,nan,nan,3.3
25027140,SALOA [25027140],-73.7325,9.193194,28.32,MAGDALENA,Bajo Cesar,Cesar,CHIMICHAGUA,CHIMICHAGUA,Limnimetrica,23.19,nan,CESAR,R0,5.81,5.31,4.81,0.03,6.74,nan,nan,nan,0.46
25027160,ACHI    [25027160],-74.553694,8.560139,24.313,CAUCA,Bajo San Jorge - La Mojana,Bajo Magdalena- Cauca -San Jorge,ACHI,ACHI,Limnimetrica,20.09,nan,BOLIVAR,R0,7.5,7.2,6.9,0.5,8.29,nan,nan,nan,4.09
25027320,SAN ROQUE [25027320],-74.157444,9.071889,23.863,MAGDALENA(MOMPOX),Directos Bajo Magdalena entre El Banco y El Plato (md),Bajo Magdalena,EL BANCO,EL BANCO,Limnimetrica,15.716,nan,MAGDALENA,R0,8.584,8.084,7.584,1.74,8.7,nan,nan,nan,nan
25027330,PEÑONCITO    [25027330],-73.947222,8.983333,28.0,MAGDALENA,Directos Bajo Magdalena entre El Banco y El Plato (md),Bajo Magdalena,EL PEÑON,EL PEÑON,Limnimetrica,19.75,nan,BOLIVAR,R0,nan,nan,nan,0.0,11.5,nan,nan,nan,nan
25027360,ARMENIA    [25027360],-74.39125,8.898139,22.395,MAGDALENA(LOBA),Directos Bajo Magdalena entre El Banco y El Plato (md),Bajo Magdalena,PINILLOS,PINILLOS,Limnimetrica,12.291,nan,BOLIVAR,R0,10.009,9.509,9.009,2.42,10.53,nan,nan,nan,nan
25027370,STA ANA [25027370],-74.574558,9.320253,17.995,MAGDALENA(MOMPOX),Directos Bajo Magdalena entre El Banco y El Plato (md),Bajo Magdalena,SANTA ANA,SANTA ANA,Limnigrafica,9.72,nan,MAGDALENA,R0,5.92,5.77,5.62,0.88,8.55,nan,nan,nan,nan
25027390,PALOMAS LAS   [25027390],-74.167917,8.838278,23.698,MAGDALENA,Directos Bajo Cauca - Cga La Raya entre río Nechí y brazo de loba,Bajo Magdalena- Cauca -San Jorge,BARRANCO DE LOBA,BARRANCO DE LOBA,Limnimetrica,16.111,nan,BOLIVAR,R0,8.689,8.189,7.689,2.73,8.99,nan,nan,nan,nan
25027420,VICTORIA LA   [25027420],-74.220722,8.948222,24.0,CÑO VIOLO,Directos Bajo Magdalena entre El Banco y El Plato (md),Bajo Magdalena,MARGARITA,MARGARITA,Limnimetrica,0.0,nan,BOLIVAR,R0,nan,nan,nan,2.0,8.08,nan,nan,nan,nan
25027490,LAS AGUADAS   [25027490],-74.059806,8.952139,27.223,MAGDALENA,Directos Bajo Magdalena entre El Banco y El Plato (md),Bajo Magdalena,HATILLO DE LOBA,HATILLO DE LOBA,Limnimetrica,17.384,nan,BOLIVAR,R0,10.416,9.916,9.416,2.86,10.28,nan,nan,nan,nan
25027500,MAJAGUAL    [25027500],-74.635556,8.542833,22.376,CAÑO MOJANA,Bajo San Jorge - La Mojana,Bajo Magdalena- Cauca -San Jorge,MAJAGUAL,MAJAGUAL,Limnimetrica,17.82,nan,SUCRE,R0,3.16,3.01,2.86,0.4,5.35,nan,nan,nan,2.14
25027520,OREJERO    [25027520],-74.713944,8.983917,20.888,CAÑO PANCEGUITA,Bajo San Jorge - La Mojana,Bajo Magdalena- Cauca -San Jorge,SUCRE,SUCRE,Limnimetrica,13.0,nan,SUCRE,R0,4.21,4.13,4.05,0.01,7.97,nan,nan,nan,3.4
25027530,BARBOSA    [25027530],-74.644194,9.034472,18.696,MAGDALENA (LOBA),Bajo San Jorge - La Mojana,Bajo Magdalena- Cauca -San Jorge,MAGANGUE,MAGANGUE,Limnimetrica,10.632,nan,BOLIVAR,R0,8.668,8.168,7.668,1.22,9.18,nan,nan,nan,nan
25027570,PALENQUITO [25027570],-74.461694,8.9985,19.406,(CHICAGUA)MAGDALENA,Directos Bajo Magdalena entre El Banco y El Plato (md),Bajo Magdalena,PINILLOS,PINILLOS,Limnimetrica,11.74,nan,BOLIVAR,R0,7.56,7.06,6.56,2.64,9.33,nan,nan,nan,nan
25027630,RIO NUEVO   [25027630],-74.262139,8.807556,23.583,MAGDALENA,Directos Bajo Magdalena entre El Banco y El Plato (md),Bajo Magdalena,ALTOS DEL ROSARIO,ALTOS DEL ROSARIO,Limnimetrica,16.076,nan,BOLIVAR,R0,7.124,6.624,6.124,1.7,7.61,nan,nan,nan,nan
25027680,MAGANGUE    [25027680],-74.738694,9.254028,18.186,MAGDALENA(LOBA),Bajo San Jorge - La Mojana,Bajo Magdalena- Cauca -San Jorge,MAGANGUE,MAGANGUE,Limnimetrica,8.41,nan,BOLIVAR,R0,8.69,8.54,8.39,0.9,9.96,nan,nan,nan,nan
25027850,BELEN    [25027850],-73.907444,9.073417,35.9,CIENAGA ZAPATOZA,Bajo Cesar,Cesar,EL BANCO,EL BANCO,Limnimetrica,22.24,nan,MAGDALENA,R0,6.66,6.16,5.66,1.21,7.91,nan,nan,nan,nan
25027930,COYONGAL    [25027930],-74.485556,8.914778,19.514,MAGDALENA(LOBA),Bajo San Jorge - La Mojana,Bajo Magdalena- Cauca -San Jorge,MAGANGUE,MAGANGUE,Limnimetrica,11.0,nan,BOLIVAR,R0,9.35,9.15,8.95,2.07,10.07,nan,nan,nan,6.48
25028340,JAGUA    [25028340],-74.65675,9.097306,18.0,CÑO LOBITA,Directos Bajo Magdalena entre El Banco y El Plato (md),Bajo Magdalena,MOMPOS,MOMPOS,Limnigrafica,0.0,nan,BOLIVAR,R0,nan,nan,nan,0.0,nan,nan,nan,nan,nan
26027010,LA BALSA AUTOMATICA[26027010],-76.599083,3.091694,986.677,CAUCA,Río Quinamayo y otros directos al Cauca,Cauca,BUENOS AIRES,BUENOS AIRES,Limnigrafica,979.253,nan,CAUCA,R0,4.5,4.2,3.75,1.13,4.63,nan,nan,nan,2.06
26027320,SALVAJINA [26027320],-76.7,2.933333,1160.0,EMB SALVAJINA,Río Piendamo,Cauca,BUENOS AIRES,BUENOS AIRES,Limnimetrica,0.0,nan,CAUCA,R0,55.0,nan,nan,nan,nan,nan,nan,nan,nan
26067010,JUANCHITO AUTOMATICA [26067010],-76.475383,3.451608,950.378,CAUCA,Ríos Lilí - Melendez y Canaveralejo,Cauca,CANDELARIA,CANDELARIA,Limnigrafica,942.572,nan,VALLE DEL CAUCA,R0,7.328,6.828,6.328,0.22,8.14,nan,nan,nan,1.93
26087050,MEDIACANOA AUTOMATICA[26087050],-76.349972,3.889611,941.929,CAUCA,Ríos Guadalajara y San Pedro,Cauca,YOTOCO,YOTOCO,Limnigrafica,0.0,nan,VALLE DEL CAUCA,R0,5.81,5.31,4.81,nan,nan,nan,nan,nan,2.26
26107070,LA VICTORIA AUTOMATICA[26107070],-76.043111,4.524194,907.0,CAUCA,Rios Las Cañas - Los Micos y Obando,Cauca,LA VICTORIA,LA VICTORIA,Limnigrafica,901.548,nan,VALLE DEL CAUCA,R0,8.74,7.48,7.0,0.77,8.59,nan,nan,nan,2.63
26137110,BANANERA LA 6-909  [26137110],-75.633028,4.773889,1550.0,OTUN,Río Otún y otros directos al Cauca,Cauca,LA BANANERA,PEREIRA,Limnigrafica,0.0,275.397604893,RISARALDA,R0,nan,nan,nan,0.19,3.8,nan,nan,nan,nan
26147130,BRETANA LA   [26147130],-75.946667,5.052806,1134.0,MAPA,Río Risaralda,Cauca,APIA,APIA,Limnimetrica,0.0,234.755017367,RISARALDA,R0,nan,nan,nan,0.07,2.0,nan,nan,nan,0.4
26187110,LA PINTADA AUTOM  [26187110],-75.598722,5.73275,584.846,CAUCA,Rio Tapias y otros directos al Cauca,Cauca,nan,LA PINTADA,Hidrologica Automatica Nivel - Precipitacion,578.297,26454.2051265,ANTIOQUIA,R0,5.0,4.5,4.0,1.33,6.67,nan,nan,nan,2.72
26207030,PTE IGLESIAS   [26207030],-75.705083,5.830111,583.388,CAUCA,Directos Río Cauca  entre Río San Juan y  Pto Valdivia (md),Cauca,FREDONIA,FREDONIA,Limnimetrica,567.933,357.146018374,ANTIOQUIA,R0,nan,nan,nan,0.4,8.0,nan,nan,nan,2.9
26247030,APAVI    [26247030],-75.326639,7.470639,105.954,CAUCA,Directos al Cauca entre Pto Valdivia y Río Nechí (md),Cauca,TARAZA,TARAZA,Limnigrafica,94.86,38075.8770651,ANTIOQUIA,R0,nan,nan,nan,0.09,7.32,nan,nan,nan,2.07
28027030,FLORES LAS   [28027030],-73.246833,10.098889,112.0,MAGIRIAIMO,Medio Cesar,Cesar,ROBLES,LA PAZ,Limnimetrica,0.0,523.54876026,CESAR,R0,nan,nan,nan,0.25,5.64,nan,nan,nan,2.95
28037130,PTE CARRETERA [28037130],-73.624778,10.157528,80.0,DILUVIO,Medio Cesar,Cesar,VALLEDUPAR,VALLEDUPAR,Limnigrafica,0.0,270.546312689,CESAR,R0,nan,nan,nan,0.04,12.43,nan,nan,nan,nan
28047010,AURORA LA [28047010],-73.977806,10.276861,150.0,ARIGUANI,Río Ariguaní,Cesar,FUNDACION,FUNDACION,Limnimetrica,0.0,731.667572009,MAGDALENA,R0,nan,nan,nan,0.44,4.0,nan,nan,nan,1.34
28047030,ALGARROBO    [28047030],-74.063583,10.193444,107.0,ARIGUANI,Río Ariguaní,Cesar,EL COPEY,EL COPEY,Limnimetrica,108.64,nan,CESAR,R0,2.86,2.36,1.86,0.48,4.59,nan,nan,nan,1.58
28047040,PTE CARRETERA [28047040],-73.972667,10.271,151.0,ARIGUANICITO,Río Ariguaní,Cesar,EL COPEY,EL COPEY,Limnigrafica,100.87,175.523033337,CESAR,R0,10.63,10.13,9.63,0.07,3.5,nan,nan,nan,nan
29017010,TENERIFE [29017010],-74.864083,9.903472,13.025,MAGDALENA,Directos al Bajo Magdalena entre El Plato y Calamar (md),Bajo Magdalena,TENERIFE,TENERIFE,Limnimetrica,0.056,nan,MAGDALENA,R0,13.4,12.9,12.405,3.02,13.81,nan,nan,nan,nan
29037020,CALAMAR [29037020],-74.911694,10.253861,8.006,MAGDALENA,Canal del Dique margen izquierda,Bajo Magdalena,CALAMAR,CALAMAR,Limnimetrica,-0.353,256820.764824,BOLIVAR,R0,9.853,9.353,8.853,1.12,9.5,nan,nan,nan,5.56
29037080,GAMBOTE CANAL DEL [29037080],-75.298611,10.162222,4.0,CANAL DEL DIQUE,Canal del Dique margen derecho,Bajo Magdalena,ARJONA,ARJONA,Limnimetrica,4.0,2112.79893059,BOLIVAR,R0,8.4,7.9,7.4,4.27,9.05,nan,nan,nan,nan
29067010,TREBOL EL [29067010],-74.146333,10.635917,60.0,TUCURINCA,Cga Grande de Santa Marta,Bajo Magdalena,CIENAGA,CIENAGA,Limnigrafica,36.14,423.455983546,MAGDALENA,R0,7.86,7.36,6.86,0.0,4.76,nan,nan,nan,nan
29067040,STA ROSALIA   [29067040],-74.124056,10.819111,55.0,ORIHUECA,Cga Grande de Santa Marta,Bajo Magdalena,PRADO - SEVILLA,ZONA BANANERA,Limnimetrica,0.0,59.0630936011,MAGDALENA,R0,nan,nan,nan,0.15,7.0,nan,nan,nan,0.84
29067050,CANAL FLORIDA   [29067050],-74.086306,10.755778,60.0,SEVILLA,Cga Grande de Santa Marta,Bajo Magdalena,PRADO - SEVILLA,ZONA BANANERA,Limnigrafica,0.0,243.971235513,MAGDALENA,R0,nan,nan,nan,0.0,8.35,nan,nan,nan,4.6
29067070,RIO FRIO [29067070],-74.154111,10.905417,30.0,FRIO,Cga Grande de Santa Marta,Bajo Magdalena,CIENAGA,CIENAGA,Limnigrafica,0.0,301.615850212,MAGDALENA,R0,nan,nan,nan,0.55,5.52,nan,nan,nan,2.18
29067120,FUNDACION    [29067120],-74.185917,10.529472,55.0,FUNDACION,Cga Grande de Santa Marta,Bajo Magdalena,FUNDACION,FUNDACION,Limnimetrica,39.61,1011.29382532,MAGDALENA,R0,4.39,3.89,3.39,0.41,6.7,nan,nan,nan,2.95
29067130,PTE FERROCARRIL [29067130],-74.192111,10.585806,37.0,ARACATACA,Cga Grande de Santa Marta,Bajo Magdalena,ARACATACA,ARACATACA,Limnimetrica,27.8,749.272959026,MAGDALENA,R0,4.5,4.0,3.53,0.21,5.0,nan,nan,nan,nan
31097020,PTO INIRIDA [31097020],-67.919056,3.874417,100.0,INIRIDA,R._Inírida_(mi) -_hasta_bocas_Caño_Bocón -_y_R._Las_Viñas,Inírida,INIRIDA,INIRIDA,Limnigrafica,100.0,53695.0186463,GUAINIA,R0,11.14,10.64,10.14,1.08,14.63,nan,nan,nan,nan
32037030,MACARENA LA   [32037030],-73.79225,2.185639,311.0,GUAYABERO,Alto Guaviare,Guaviare,LA MACARENA,LA MACARENA,Limnigrafica,218.0,13820.5263765,META,R0,8.79,7.79,7.24,1.37,9.88,nan,nan,nan,4.83
32077070,PINALITO [32077070],-73.675472,2.974222,318.0,GUEJAR,Río Guejar,Guaviare,VISTAHERMOSA,VISTAHERMOSA,Limnimetrica,318.0,2358.36517827,META,R0,5.47,4.97,4.47,0.05,6.2,nan,nan,nan,3.3
32077080,PTO RICO [32077080],-73.211389,2.941667,199.0,ARIARI,Río Ariari,Guaviare,PUERTO RICO,PUERTO RICO,Limnimetrica,199.0,6091.26872195,META,R0,3.98,3.48,2.98,0.46,5.5,nan,nan,nan,2.75
32077110,EL LIMON[32077110][32077110],-74.029611,3.368903,570.0,GUEJAR,Río Guejar,Guaviare,SAN JUAN DE ARAMA,SAN JUAN DE ARAMA,Limnimetrica,570.0,267.489320109,META,R0,5.4,4.9,4.4,1.57,6.0,nan,nan,nan,2.6
32097010,MAPIRIPAN [32097010],-72.130111,2.889722,158.0,GUAVIARE,Medio Guaviare,Guaviare,MAPIRIPAN,MAPIRIPAN,Limnimetrica,0.0,40098.3905454,META,R0,11.39,11.06958,10.74916,0.9,11.65,nan,nan,nan,7.9
32107030,SAN JOSE GUAVIARE [32107030],-72.637917,2.573444,172.0,GUAVIARE,Medio Guaviare,Guaviare,SAN JOSE DEL GUAVIARE,SAN JOSE DEL GUAVIARE,Limnimetrica,172.0,nan,GUAVIARE,R0,8.7,8.2,7.7,1.07,9.52,nan,nan,nan,7.17
32157010,MAPIRIPANA [32157010],-70.533333,2.8,121.0,GUAVIARE,Medio Guaviare,Guaviare,SAN JOSE DEL GUAVIARE,SAN JOSE DEL GUAVIARE,Limnigrafica,0.0,52302.3274387,GUAVIARE,R0,nan,nan,nan,0.78,12.45,nan,nan,nan,8.64
35047030,PTE CARRETERA [35047030],-73.412381,4.31245,388.732,GUACAVIA,Río Guacavía,Meta,CUMARAL,CUMARAL,Limnimetrica,378.604,344.069318056,META,R0,nan,nan,nan,0.09,5.0,nan,nan,nan,nan
35067130,MUNDO NUEVO [35067130],-73.392972,4.852833,1757.0,RUCIO,Río Guavio,Meta,LA PLAYA,UBALA,Limnigrafica,0.0,38.0770026398,CUNDINAMARCA,R0,3.5,3.230212,2.960424,0.04,6.5,nan,nan,nan,1.04
35077080,PTE FIERRO AUTOMATICA[35077080],-73.462639,4.984583,1335.0,SOMONDOCO,Río Garagoa,Meta,SOMONDOCO,SOMONDOCO,Limnigrafica,0.0,618.126918942,BOYACA,R0,3.5,3.0,2.5,0.01,6.0,nan,nan,nan,1.95
35077090,PTE ADRIANA [35077090],-73.361639,5.385,2058.0,JENESANO,Río Garagoa,Meta,JENESANO,JENESANO,Limnimetrica,0.0,344.337796204,BOYACA,R0,nan,nan,nan,0.0,3.0,nan,nan,nan,0.9
35087010,SAN AGUSTIN   [35087010],-73.234083,4.860083,416.0,LENGUPA,Río Lengupá,Meta,SANTA MARIA,SANTA MARIA,Limnigrafica,441.2177,1634.2584449,BOYACA,-Y,4.9823,4.4823,3.9823,0.27,8.0,nan,Amarilla,nan,4.0
35097070,ESCALERAS [35097070],-72.9385,5.491944,3002.0,LAG DE TOTA,Lago de Tota,Meta,TOTA,TOTA,Limnimetrica,0.0,nan,BOYACA,R0,nan,nan,nan,0.06,2.51,nan,nan,nan,1.54
35107030,CABUYARO [35107030],-72.793306,4.281008,168.707,META,Directos al Río Meta entre ríos Humea y Upia (mi),Meta,CABUYARO,CABUYARO,Limnimetrica,157.56,14362.2907368,META,R0,7.36,6.916459,6.472919,0.02,7.82,nan,nan,nan,5.28
35117010,HUMAPO [35117010],-72.391583,4.327778,153.0,META,Directos Rio Metica entre ríos Guayuriba y Yucao,Meta,PUERTO LOPEZ,PUERTO LOPEZ,Limnigrafica,143.202,25849.5859632,META,-O,8.23,7.675183,7.120367,2.66,8.83,nan,Naranja,nan,7.72
35127010,PTO GAITAN [35127010],-72.076583,4.311556,146.0,MANACACIAS,Río Manacacias,Meta,PUERTO GAITAN,PUERTO GAITAN,Limnimetrica,0.0,9785.89806842,META,R0,nan,nan,nan,0.01,9.64,nan,nan,nan,5.81
35237020,PTE CARRETERA   [35237020],-72.004667,5.731861,360.0,PORE,Río Pauto,Meta,PORE,PORE,Limnimetrica,0.0,12.4924436066,CASANARE,R0,3.0,2.719113,2.438225,0.07,4.0,nan,nan,nan,nan
35267010,HERMOSA LA [35267010],-70.441972,5.533333,93.0,META,Directos al Río Meta entre ríos Pauto y Carare (mi),Meta,PAZ DE ARIPORO,PAZ DE ARIPORO,Limnimetrica,82.73,nan,CASANARE,-R,8.98,8.52192,8.063841,2.02,10.18,nan,Roja,nan,9.61
36017010,PAZ DE ARIPORO [36017010],-71.902389,5.906556,274.0,ARIPORO,Río Ariporo,Casanare,HATO COROZAL,HATO COROZAL,Limnigrafica,0.0,513.21691442,CASANARE,R0,3.1,2.45,1.8,0.0,3.7,nan,nan,nan,nan
36027050,CRAVO NORTE [36027050],-70.194333,6.295639,91.0,CASANARE,Río Casanare,Casanare,CRAVO NORTE,CRAVO NORTE,Limnimetrica,0.0,14731.6365769,ARAUCA,R0,8.68,8.458294,8.236588,1.8,8.25,nan,nan,nan,6.4
37057060,PTE INTERNACIONA[37057060],-70.743889,7.090833,122.0,ARAUCA,Directos Río Arauca (md),Arauca,ARAUCA,ARAUCA,Limnimetrica,0.0,nan,ARAUCA,R0,6.3,5.845024,5.390048,1.58,7.5,nan,nan,nan,nan
38017010,PTO CARREÑO  [38017010],-67.479583,6.176528,55.0,ORINOCO,Directos Bajo Meta entre ríos Casanare y Orinoco (md),Meta,PUERTO CARREÑO,PUERTO CARREÑO,Limnimetrica,34.1457,nan,VICHADA,R0,14.0,13.74,13.47,0.18,16.5,nan,nan,nan,11.7
44037050,VENECIA [44037050],-75.529306,1.563111,520.19,ORTEGUAZA,Río Orteguaza,Caquetá,FLORENCIA,FLORENCIA,Limnigrafica,509.896,1075.10363246,CAQUETA,R0,6.55,6.05,5.55,0.63,9.7,nan,nan,nan,4.55
47017010,MUELLE EL   [47017010],-76.470722,0.450972,200.0,PUTUMAYO,Alto Río Putumayo,Putumayo,PUERTO ASIS,PUERTO ASIS,Limnimetrica,0.0,nan,PUTUMAYO,R0,nan,nan,nan,4.0,11.78,nan,nan,nan,7.6
47017150,JOYA LA [47017150],-76.579306,0.78875,350.0,GUINEO,Alto Río Putumayo,Putumayo,VILLAFLOR,VILLAGARZON,Limnigrafica,0.0,382.885499829,PUTUMAYO,R0,nan,nan,nan,0.04,7.0,nan,nan,nan,2.0
48017010,LETICIA [48017010],-69.943144,-4.222538,120.0,AMAZONAS,Directos Río Amazonas (mi),Amazonas - Directos,LETICIA,LETICIA,Limnigrafica,51.63,989709.806552,AMAZONAS,R0,17.7,17.130748,16.261495,1.54,18.46,nan,nan,nan,12.56
52047030,BOCATOMA CENTENARIO [52047030],-77.247778,1.201389,2740.0,PASTO,Río Juananbú,Patía,SAN JUAN DE PASTO,PASTO,Limnigrafica,2610.97,67.8624889296,NARINO,R0,3.13,2.63,2.13,nan,3.29,nan,nan,nan,1.33
52057030,AGROYACO    [52057030],-77.442694,1.574167,480.0,GUAITARA,Río Guáitara,Patía,PANGUS,LOS ANDES,Limnigrafica,0.0,3309.76721223,NARINO,R0,nan,nan,nan,nan,18.23,nan,nan,nan,1.57
52057040,CARLOSAMA [52057040],-77.685889,0.844167,2920.0,BLANCO,Río Guáitara,Patía,CARLOSAMA,CUASPUD,Limnigrafica,0.0,209.211552288,NARINO,R0,nan,nan,nan,nan,3.0,nan,nan,nan,0.92
52077020,LOS NORTES AUTOMATICA [52077020],-77.531111,1.741111,340.0,PATIA,Río Patia Medio,Patía,CUMBITARA,CUMBITARA,Limnigrafica,0.0,nan,NARINO,R0,nan,nan,nan,nan,16.8,nan,nan,nan,4.55
53107050,ALTO ANCHICAYA [53107050],-76.866667,3.4,875.0,EMBALSE,Río Anchicayá,Tapaje - Dagua - Directos,DISTRITO ESPECIAL INDUSTRIAL PORTUARIO BIODIVERSO,BUENAVENTURA,Limnigrafica,0.0,nan,VALLE DEL CAUCA,R0,46.5,nan,nan,15.92,nan,nan,nan,nan,nan
1506700109,BRUNO SECO,-72.48818889,11.13453611,166.0,Ay Bruno,Rio Rancheria,Caribe - Guajira,MAICAO,MAICAO,Limnimetrica,nan,nan,LA GUAJIRA,R0,nan,nan,nan,nan,nan,nan,nan,nan,0.49
1506700110,POZO TIGRE  [1506700110],-72.49983056,11.1341,153.0,Ay Bruno,Rio Rancheria,Caribe - Guajira,ALBANIA (LA GUAJIRA),ALBANIA (LA GUAJIRA),Limnimetrica,nan,nan,LA GUAJIRA,R0,nan,nan,nan,nan,nan,nan,nan,nan,0.28
11027050,GINDRAMA [11027050],-76.517722,5.521556,75.0,ATRATO,Alto Atrato,Atrato - Darién,LLORO,LLORO,Limnigrafica,0.0,1624.78932447,CHOCO,R0,nan,nan,nan,0.18,7.96,nan,nan,nan,nan
11047010,BELEN    [11047010],-76.669653,5.764828,20.579,ATRATO,Río Cabi y otros Directos Atrato (md),Atrato - Darién,SAN FRANCISCO DE QUIBDO,QUIBDO,Limnigrafica,18.21,5432.07181443,CHOCO,R0,8.38,nan,nan,2.0,9.98,nan,nan,4.33,nan
11057020,SAN ANTONIO PADUA [11057020],-76.761806,6.286667,18.0,ATRATO,Directos Atrato entre ríos Bebaramá y Murrí (md),Atrato - Darién,VIGIA DEL FUERTE,VIGIA DEL FUERTE,Limnimetrica,0.0,10511.3513093,ANTIOQUIA,R0,nan,nan,nan,0.11,8.83,nan,nan,nan,nan
11077020,MAGDALENA LA [11077020],-76.134472,6.298361,1770.0,PENDERISCO,Río Murrí,Atrato - Darién,URRAO,URRAO,Limnigrafica,0.0,632.285341964,ANTIOQUIA,-bass,nan,nan,nan,0.01,2.9,nan,Nivel Bajo,nan,0.0
11117040,MUTATA [11117040],-76.438056,7.229444,132.0,RIOSUCIO,Río Sucio,Atrato - Darién,MUTATA,MUTATA,Limnigrafica,0.0,3320.4625456,ANTIOQUIA,R0,nan,nan,nan,1.03,8.48,nan,nan,nan,nan
11117050,DABEIBA 2   [11117050],-76.266667,7.004417,650.0,RIOSUCIO,Río Sucio,Atrato - Darién,DABEIBA,DABEIBA,Limnimetrica,650.0,1973.8413801,ANTIOQUIA,R0,4.2,3.8,3.3,0.29,4.28,nan,nan,nan,nan
12017020,BARRANQUILLITA    [12017020],-76.710806,7.571556,33.0,LEON,Río León,Caribe - Litoral,CHIGORODO,CHIGORODO,Limnimetrica,0.0,683.017370397,ANTIOQUIA,R0,nan,nan,nan,0.5,7.24,nan,nan,nan,nan
12027010,PUEBLO BELLO   [12027010],-76.524167,8.205278,84.0,MULATOS,Río Mulatos y otros directos al Caribe,Caribe - Litoral,DISTRITO ESPECIAL DE TURBO,TURBO,Limnimetrica,0.0,308.314160788,ANTIOQUIA,R0,5.0,4.03,3.06,0.19,10.0,nan,nan,nan,nan
12067001,GUAJARO EMBALSE AUT [12067001],-75.096278,10.520556,6.0,EMBALSE GUAJARO,Canal del Dique margen derecho,Bajo Magdalena,REPELON,REPELON,Hidrologica Automatica Nivel,nan,nan,ATL‘NTICO,R0,nan,nan,nan,nan,nan,nan,nan,nan,nan
13077060,COTOCA ABAJO   [13077060],-75.853686,9.221925,5.87,SINU,Bajo Sinú,Sinú,SANTA CRUZ DE LORICA,LORICA,Limnigrafica,-0.457,13400.0800493,CORDOBA,R0,5.857,5.357,4.857,0.75,6.22,nan,nan,nan,4.32
